{
"type": "FeatureCollection",
"name": "khm_geo",
"crs": { "type": "name", "properties": { "name": "urn:ogc:def:crs:OGC:1.3:CRS84" } },
"features": [
{ "type": "Feature", "properties": { "geo_id": "KHM-000001", "deped_id": 1020101005.0, "school_name": "O Thom", "address": null, "adm0": "KHM", "adm1": "Bantey Meanchey", "adm2": "Mongkol Borei", "adm3": "Banteay Neang", "longitude": 103.03069845785991, "latitude": 13.515280683601715 }, "geometry": { "type": "Point", "coordinates": [ 103.030698457859913, 13.515280683601715 ] } },
{ "type": "Feature", "properties": { "geo_id": "KHM-000002", "deped_id": 1020103001.0, "school_name": "Banteay Neang", "address": null, "adm0": "KHM", "adm1": "Bantey Meanchey", "adm2": "Mongkol Borei", "adm3": "Banteay Neang", "longitude": 103.01544201116597, "latitude": 13.512846672613779 }, "geometry": { "type": "Point", "coordinates": [ 103.015442011165973, 13.512846672613779 ] } },
{ "type": "Feature", "properties": { "geo_id": "KHM-000003", "deped_id": 1020105008.0, "school_name": "Trang", "address": null, "adm0": "KHM", "adm1": "Bantey Meanchey", "adm2": "Mongkol Borei", "adm3": "Banteay Neang", "longitude": 103.0079455315561, "latitude": 13.505792141110023 }, "geometry": { "type": "Point", "coordinates": [ 103.007945531556103, 13.505792141110023 ] } },
{ "type": "Feature", "properties": { "geo_id": "KHM-000004", "deped_id": 1020106006.0, "school_name": "Pongror", "address": null, "adm0": "KHM", "adm1": "Bantey Meanchey", "adm2": "Mongkol Borei", "adm3": "Ou Prasat", "longitude": 102.9987791305384, "latitude": 13.498588556974575 }, "geometry": { "type": "Point", "coordinates": [ 102.998779130538395, 13.498588556974575 ] } },
{ "type": "Feature", "properties": { "geo_id": "KHM-000005", "deped_id": 1020107084.0, "school_name": "Kauk Tunloap", "address": null, "adm0": "KHM", "adm1": "Bantey Meanchey", "adm2": "Mongkol Borei", "adm3": "Banteay Neang", "longitude": 103.01423976974498, "latitude": 13.489583510676969 }, "geometry": { "type": "Point", "coordinates": [ 103.014239769744975, 13.489583510676969 ] } },
{ "type": "Feature", "properties": { "geo_id": "KHM-000006", "deped_id": 1020109003.0, "school_name": "Khilek", "address": null, "adm0": "KHM", "adm1": "Bantey Meanchey", "adm2": "Mongkol Borei", "adm3": "Banteay Neang", "longitude": 103.02543593860247, "latitude": 13.488072196416702 }, "geometry": { "type": "Point", "coordinates": [ 103.02543593860247, 13.488072196416702 ] } },
{ "type": "Feature", "properties": { "geo_id": "KHM-000007", "deped_id": 1020112002.0, "school_name": "Dang Run", "address": null, "adm0": "KHM", "adm1": "Bantey Meanchey", "adm2": "Mongkol Borei", "adm3": "Banteay Neang", "longitude": 103.04333765832138, "latitude": 13.498922078572535 }, "geometry": { "type": "Point", "coordinates": [ 103.043337658321377, 13.498922078572535 ] } },
{ "type": "Feature", "properties": { "geo_id": "KHM-000008", "deped_id": 1020115007.0, "school_name": "Prey Changhar", "address": null, "adm0": "KHM", "adm1": "Bantey Meanchey", "adm2": "Mongkol Borei", "adm3": "Banteay Neang", "longitude": 103.03309104507473, "latitude": 13.467842748326515 }, "geometry": { "type": "Point", "coordinates": [ 103.033091045074727, 13.467842748326515 ] } },
{ "type": "Feature", "properties": { "geo_id": "KHM-000009", "deped_id": 1020118004.0, "school_name": "O Andaung", "address": null, "adm0": "KHM", "adm1": "Bantey Meanchey", "adm2": "Mongkol Borei", "adm3": "Banteay Neang", "longitude": 103.05681215207427, "latitude": 13.470395171215085 }, "geometry": { "type": "Point", "coordinates": [ 103.056812152074272, 13.470395171215085 ] } },
{ "type": "Feature", "properties": { "geo_id": "KHM-000010", "deped_id": 1020203009.0, "school_name": "Anlung Thngann", "address": null, "adm0": "KHM", "adm1": "Bantey Meanchey", "adm2": "Mongkol Borei", "adm3": "Bat Trang", "longitude": 102.98569674818995, "latitude": 13.51460657067061 }, "geometry": { "type": "Point", "coordinates": [ 102.985696748189952, 13.51460657067061 ] } },
{ "type": "Feature", "properties": { "geo_id": "KHM-000011", "deped_id": 1020209010.0, "school_name": "Bat Trang", "address": null, "adm0": "KHM", "adm1": "Bantey Meanchey", "adm2": "Mongkol Borei", "adm3": "Bat Trang", "longitude": 102.99076822567855, "latitude": 13.531023116790307 }, "geometry": { "type": "Point", "coordinates": [ 102.990768225678551, 13.531023116790307 ] } },
{ "type": "Feature", "properties": { "geo_id": "KHM-000012", "deped_id": 1020303078.0, "school_name": "Samaki", "address": null, "adm0": "KHM", "adm1": "Bantey Meanchey", "adm2": "Mongkol Borei", "adm3": "Chamnaom", "longitude": 102.94732511745761, "latitude": 13.452570786799091 }, "geometry": { "type": "Point", "coordinates": [ 102.947325117457609, 13.452570786799091 ] } },
{ "type": "Feature", "properties": { "geo_id": "KHM-000013", "deped_id": 1020305012.0, "school_name": "Chamnom", "address": null, "adm0": "KHM", "adm1": "Bantey Meanchey", "adm2": "Mongkol Borei", "adm3": "Chamnaom", "longitude": 102.93645536118882, "latitude": 13.445270177923977 }, "geometry": { "type": "Point", "coordinates": [ 102.93645536118882, 13.445270177923977 ] } },
{ "type": "Feature", "properties": { "geo_id": "KHM-000014", "deped_id": 1020309016.0, "school_name": "Raung Ko", "address": null, "adm0": "KHM", "adm1": "Bantey Meanchey", "adm2": "Mongkol Borei", "adm3": "Chamnaom", "longitude": 102.93138191667484, "latitude": 13.423177801936596 }, "geometry": { "type": "Point", "coordinates": [ 102.931381916674837, 13.423177801936596 ] } },
{ "type": "Feature", "properties": { "geo_id": "KHM-000015", "deped_id": 1020311013.0, "school_name": "Chor Khchas", "address": null, "adm0": "KHM", "adm1": "Bantey Meanchey", "adm2": "Mongkol Borei", "adm3": "Chamnaom", "longitude": 102.95880560127485, "latitude": 13.408489741323098 }, "geometry": { "type": "Point", "coordinates": [ 102.958805601274847, 13.408489741323098 ] } },
{ "type": "Feature", "properties": { "geo_id": "KHM-000016", "deped_id": 1020312011.0, "school_name": "Boeung Troh", "address": null, "adm0": "KHM", "adm1": "Bantey Meanchey", "adm2": "Mongkol Borei", "adm3": "Chamnaom", "longitude": 102.96830565516777, "latitude": 13.412813978404708 }, "geometry": { "type": "Point", "coordinates": [ 102.968305655167768, 13.412813978404708 ] } },
{ "type": "Feature", "properties": { "geo_id": "KHM-000017", "deped_id": 1020313014.0, "school_name": "Dang Trong", "address": null, "adm0": "KHM", "adm1": "Bantey Meanchey", "adm2": "Mongkol Borei", "adm3": "Phnum Touch", "longitude": 102.98088972546766, "latitude": 13.417126460962502 }, "geometry": { "type": "Point", "coordinates": [ 102.980889725467662, 13.417126460962502 ] } },
{ "type": "Feature", "properties": { "geo_id": "KHM-000018", "deped_id": 1020317015.0, "school_name": "Kauk Ponley", "address": null, "adm0": "KHM", "adm1": "Bantey Meanchey", "adm2": "Mongkol Borei", "adm3": "Chamnaom", "longitude": 102.96652102067293, "latitude": 13.438375353352777 }, "geometry": { "type": "Point", "coordinates": [ 102.966521020672928, 13.438375353352777 ] } },
{ "type": "Feature", "properties": { "geo_id": "KHM-000019", "deped_id": 1020318080.0, "school_name": "Say Samon", "address": null, "adm0": "KHM", "adm1": "Bantey Meanchey", "adm2": "Mongkol Borei", "adm3": "Chamnaom", "longitude": 102.8597823239312, "latitude": 13.436334131803374 }, "geometry": { "type": "Point", "coordinates": [ 102.859782323931199, 13.436334131803374 ] } },
{ "type": "Feature", "properties": { "geo_id": "KHM-000020", "deped_id": 1020402019.0, "school_name": "Ta An", "address": null, "adm0": "KHM", "adm1": "Bantey Meanchey", "adm2": "Mongkol Borei", "adm3": "Kouk Ballangk", "longitude": 103.08808557087914, "latitude": 13.472108243681861 }, "geometry": { "type": "Point", "coordinates": [ 103.088085570879144, 13.472108243681861 ] } },
{ "type": "Feature", "properties": { "geo_id": "KHM-000021", "deped_id": 1020404018.0, "school_name": "Cheung Chab", "address": null, "adm0": "KHM", "adm1": "Bantey Meanchey", "adm2": "Mongkol Borei", "adm3": "Kouk Ballangk", "longitude": 103.09687098895887, "latitude": 13.470548105357611 }, "geometry": { "type": "Point", "coordinates": [ 103.096870988958869, 13.470548105357611 ] } },
{ "type": "Feature", "properties": { "geo_id": "KHM-000022", "deped_id": 1020406017.0, "school_name": "Char Thmei", "address": null, "adm0": "KHM", "adm1": "Bantey Meanchey", "adm2": "Mongkol Borei", "adm3": "Kouk Ballangk", "longitude": 103.1172307436279, "latitude": 13.474479387029984 }, "geometry": { "type": "Point", "coordinates": [ 103.1172307436279, 13.474479387029984 ] } },
{ "type": "Feature", "properties": { "geo_id": "KHM-000023", "deped_id": 1020408020.0, "school_name": "Ta Sal", "address": null, "adm0": "KHM", "adm1": "Bantey Meanchey", "adm2": "Mongkol Borei", "adm3": "Kouk Ballangk", "longitude": 103.15945039034914, "latitude": 13.483369557587949 }, "geometry": { "type": "Point", "coordinates": [ 103.159450390349136, 13.483369557587949 ] } },
{ "type": "Feature", "properties": { "geo_id": "KHM-000024", "deped_id": 1020501022.0, "school_name": "Koy Meng", "address": null, "adm0": "KHM", "adm1": "Bantey Meanchey", "adm2": "Mongkol Borei", "adm3": "Koy Maeng", "longitude": 103.09142232454826, "latitude": 13.551848085350667 }, "geometry": { "type": "Point", "coordinates": [ 103.091422324548262, 13.551848085350667 ] } },
{ "type": "Feature", "properties": { "geo_id": "KHM-000025", "deped_id": 1020503023.0, "school_name": "Phlov Siem", "address": null, "adm0": "KHM", "adm1": "Bantey Meanchey", "adm2": "Mongkol Borei", "adm3": "Koy Maeng", "longitude": 103.08685045931642, "latitude": 13.549427126668503 }, "geometry": { "type": "Point", "coordinates": [ 103.086850459316423, 13.549427126668503 ] } },
{ "type": "Feature", "properties": { "geo_id": "KHM-000026", "deped_id": 1020506021.0, "school_name": "Kosang Thmei", "address": null, "adm0": "KHM", "adm1": "Bantey Meanchey", "adm2": "Mongkol Borei", "adm3": "Koy Maeng", "longitude": 103.11159879110181, "latitude": 13.557595884267791 }, "geometry": { "type": "Point", "coordinates": [ 103.111598791101812, 13.557595884267791 ] } },
{ "type": "Feature", "properties": { "geo_id": "KHM-000027", "deped_id": 1020508024.0, "school_name": "Chamkar Chek", "address": null, "adm0": "KHM", "adm1": "Bantey Meanchey", "adm2": "Mongkol Borei", "adm3": "Koy Maeng", "longitude": 103.08046552818432, "latitude": 13.549631230889046 }, "geometry": { "type": "Point", "coordinates": [ 103.08046552818432, 13.549631230889046 ] } },
{ "type": "Feature", "properties": { "geo_id": "KHM-000028", "deped_id": 1020602028.0, "school_name": "Phnom Thom", "address": null, "adm0": "KHM", "adm1": "Bantey Meanchey", "adm2": "Mongkol Borei", "adm3": "Ou Prasat", "longitude": 103.01365683725068, "latitude": 13.44383068230217 }, "geometry": { "type": "Point", "coordinates": [ 103.013656837250679, 13.44383068230217 ] } },
{ "type": "Feature", "properties": { "geo_id": "KHM-000029", "deped_id": 1020605029.0, "school_name": "Phnom Thom Thmei", "address": null, "adm0": "KHM", "adm1": "Bantey Meanchey", "adm2": "Mongkol Borei", "adm3": "Ou Prasat", "longitude": 103.02043483764584, "latitude": 13.452740941794195 }, "geometry": { "type": "Point", "coordinates": [ 103.020434837645837, 13.452740941794195 ] } },
{ "type": "Feature", "properties": { "geo_id": "KHM-000030", "deped_id": 1020608026.0, "school_name": "Kauk Thnung", "address": null, "adm0": "KHM", "adm1": "Bantey Meanchey", "adm2": "Mongkol Borei", "adm3": "Ou Prasat", "longitude": 103.03396399011932, "latitude": 13.451400999530785 }, "geometry": { "type": "Point", "coordinates": [ 103.033963990119318, 13.451400999530785 ] } },
{ "type": "Feature", "properties": { "geo_id": "KHM-000031", "deped_id": 1020609027.0, "school_name": "O Snguot", "address": null, "adm0": "KHM", "adm1": "Bantey Meanchey", "adm2": "Mongkol Borei", "adm3": "Ou Prasat", "longitude": 103.01128728455244, "latitude": 13.466912010031811 }, "geometry": { "type": "Point", "coordinates": [ 103.011287284552438, 13.466912010031811 ] } },
{ "type": "Feature", "properties": { "geo_id": "KHM-000032", "deped_id": 1020611025.0, "school_name": "O Prasat", "address": null, "adm0": "KHM", "adm1": "Bantey Meanchey", "adm2": "Mongkol Borei", "adm3": "Ou Prasat", "longitude": 102.99685987655494, "latitude": 13.470674525389491 }, "geometry": { "type": "Point", "coordinates": [ 102.996859876554936, 13.470674525389491 ] } },
{ "type": "Feature", "properties": { "geo_id": "KHM-000033", "deped_id": 1020612079.0, "school_name": "Ra Chamkar Chek", "address": null, "adm0": "KHM", "adm1": "Bantey Meanchey", "adm2": "Mongkol Borei", "adm3": "Ou Prasat", "longitude": 103.01011135365468, "latitude": 13.456120890237532 }, "geometry": { "type": "Point", "coordinates": [ 103.010111353654679, 13.456120890237532 ] } },
{ "type": "Feature", "properties": { "geo_id": "KHM-000034", "deped_id": 1020613030.0, "school_name": "Po Rieng", "address": null, "adm0": "KHM", "adm1": "Bantey Meanchey", "adm2": "Mongkol Borei", "adm3": "Ou Prasat", "longitude": 103.00880435211432, "latitude": 13.481289166567109 }, "geometry": { "type": "Point", "coordinates": [ 103.008804352114325, 13.481289166567109 ] } },
{ "type": "Feature", "properties": { "geo_id": "KHM-000035", "deped_id": 1020614031.0, "school_name": "Roung Krabao", "address": null, "adm0": "KHM", "adm1": "Bantey Meanchey", "adm2": "Mongkol Borei", "adm3": "Ou Prasat", "longitude": 103.00391141980214, "latitude": 13.488896057308851 }, "geometry": { "type": "Point", "coordinates": [ 103.003911419802137, 13.488896057308851 ] } },
{ "type": "Feature", "properties": { "geo_id": "KHM-000036", "deped_id": 1020701034.0, "school_name": "Sang Prasat", "address": null, "adm0": "KHM", "adm1": "Bantey Meanchey", "adm2": "Mongkol Borei", "adm3": "Phnum Touch", "longitude": 103.0158628531796, "latitude": 13.405709345714808 }, "geometry": { "type": "Point", "coordinates": [ 103.015862853179598, 13.405709345714808 ] } },
{ "type": "Feature", "properties": { "geo_id": "KHM-000037", "deped_id": 1020704033.0, "school_name": "Chey Tep Mongkol", "address": null, "adm0": "KHM", "adm1": "Bantey Meanchey", "adm2": "Mongkol Borei", "adm3": "Phnum Touch", "longitude": 103.02137007931924, "latitude": 13.398323624526563 }, "geometry": { "type": "Point", "coordinates": [ 103.02137007931924, 13.398323624526563 ] } },
{ "type": "Feature", "properties": { "geo_id": "KHM-000038", "deped_id": 1020705032.0, "school_name": "Boeung Troh", "address": null, "adm0": "KHM", "adm1": "Bantey Meanchey", "adm2": "Mongkol Borei", "adm3": "Phnum Touch", "longitude": 103.00112656131448, "latitude": 13.433880590479129 }, "geometry": { "type": "Point", "coordinates": [ 103.001126561314479, 13.433880590479129 ] } },
{ "type": "Feature", "properties": { "geo_id": "KHM-000039", "deped_id": 1020707035.0, "school_name": "Poy Ta Sek", "address": null, "adm0": "KHM", "adm1": "Bantey Meanchey", "adm2": "Mongkol Borei", "adm3": "Phnum Touch", "longitude": 103.04160681727438, "latitude": 13.394793965791683 }, "geometry": { "type": "Point", "coordinates": [ 103.041606817274385, 13.394793965791683 ] } },
{ "type": "Feature", "properties": { "geo_id": "KHM-000040", "deped_id": 1020708036.0, "school_name": "Prey Toteung", "address": null, "adm0": "KHM", "adm1": "Bantey Meanchey", "adm2": "Mongkol Borei", "adm3": "Ou Prasat", "longitude": 103.03635784927043, "latitude": 13.428427771726474 }, "geometry": { "type": "Point", "coordinates": [ 103.036357849270431, 13.428427771726474 ] } },
{ "type": "Feature", "properties": { "geo_id": "KHM-000041", "deped_id": 1020710037.0, "school_name": "Sovann Kiri", "address": null, "adm0": "KHM", "adm1": "Bantey Meanchey", "adm2": "Mongkol Borei", "adm3": "Phnum Touch", "longitude": 103.01840490369304, "latitude": 13.416574478604675 }, "geometry": { "type": "Point", "coordinates": [ 103.018404903693039, 13.416574478604675 ] } },
{ "type": "Feature", "properties": { "geo_id": "KHM-000042", "deped_id": 1020801043.0, "school_name": "Po 2 Deum", "address": null, "adm0": "KHM", "adm1": "Bantey Meanchey", "adm2": "Mongkol Borei", "adm3": "Rohat Tuek", "longitude": 102.98808288796424, "latitude": 13.496587042875047 }, "geometry": { "type": "Point", "coordinates": [ 102.988082887964239, 13.496587042875047 ] } },
{ "type": "Feature", "properties": { "geo_id": "KHM-000043", "deped_id": 1020803045.0, "school_name": "Rohat Teuk", "address": null, "adm0": "KHM", "adm1": "Bantey Meanchey", "adm2": "Mongkol Borei", "adm3": "Rohat Tuek", "longitude": 102.98141361915049, "latitude": 13.479163568853091 }, "geometry": { "type": "Point", "coordinates": [ 102.981413619150487, 13.479163568853091 ] } },
{ "type": "Feature", "properties": { "geo_id": "KHM-000044", "deped_id": 1020808044.0, "school_name": "Prek Samrong", "address": null, "adm0": "KHM", "adm1": "Bantey Meanchey", "adm2": "Mongkol Borei", "adm3": "Rohat Tuek", "longitude": 102.9617069975376, "latitude": 13.461743117730311 }, "geometry": { "type": "Point", "coordinates": [ 102.961706997537604, 13.461743117730311 ] } },
{ "type": "Feature", "properties": { "geo_id": "KHM-000045", "deped_id": 1020809042.0, "school_name": "O Dangkor", "address": null, "adm0": "KHM", "adm1": "Bantey Meanchey", "adm2": "Mongkol Borei", "adm3": "Rohat Tuek", "longitude": 102.98288622379127, "latitude": 13.458814086582771 }, "geometry": { "type": "Point", "coordinates": [ 102.982886223791269, 13.458814086582771 ] } },
{ "type": "Feature", "properties": { "geo_id": "KHM-000046", "deped_id": 1020810038.0, "school_name": "Chamkar Chek", "address": null, "adm0": "KHM", "adm1": "Bantey Meanchey", "adm2": "Mongkol Borei", "adm3": "Rohat Tuek", "longitude": 102.9800856946564, "latitude": 13.450323546801091 }, "geometry": { "type": "Point", "coordinates": [ 102.980085694656395, 13.450323546801091 ] } },
{ "type": "Feature", "properties": { "geo_id": "KHM-000047", "deped_id": 1020811041.0, "school_name": "O Chuob", "address": null, "adm0": "KHM", "adm1": "Bantey Meanchey", "adm2": "Mongkol Borei", "adm3": "Rohat Tuek", "longitude": 102.97849008146829, "latitude": 13.442402994185731 }, "geometry": { "type": "Point", "coordinates": [ 102.978490081468294, 13.442402994185731 ] } },
{ "type": "Feature", "properties": { "geo_id": "KHM-000048", "deped_id": 1020812040.0, "school_name": "Kar Svay", "address": null, "adm0": "KHM", "adm1": "Bantey Meanchey", "adm2": "Mongkol Borei", "adm3": "Phnum Touch", "longitude": 102.99260054854817, "latitude": 13.431038283143572 }, "geometry": { "type": "Point", "coordinates": [ 102.992600548548168, 13.431038283143572 ] } },
{ "type": "Feature", "properties": { "geo_id": "KHM-000049", "deped_id": 1020813039.0, "school_name": "Chak", "address": null, "adm0": "KHM", "adm1": "Bantey Meanchey", "adm2": "Mongkol Borei", "adm3": "Rohat Tuek", "longitude": 102.9684015971087, "latitude": 13.465014599547061 }, "geometry": { "type": "Point", "coordinates": [ 102.968401597108695, 13.465014599547061 ] } },
{ "type": "Feature", "properties": { "geo_id": "KHM-000050", "deped_id": 1020901046.0, "school_name": "Nun Serik", "address": null, "adm0": "KHM", "adm1": "Bantey Meanchey", "adm2": "Mongkol Borei", "adm3": "Ruessei Kraok", "longitude": 103.06845107609254, "latitude": 13.542290359592091 }, "geometry": { "type": "Point", "coordinates": [ 103.068451076092543, 13.542290359592091 ] } },
{ "type": "Feature", "properties": { "geo_id": "KHM-000051", "deped_id": 1020902052.0, "school_name": "Anhchanh", "address": null, "adm0": "KHM", "adm1": "Bantey Meanchey", "adm2": "Mongkol Borei", "adm3": "Ruessei Kraok", "longitude": 103.05647123781308, "latitude": 13.542161383684718 }, "geometry": { "type": "Point", "coordinates": [ 103.056471237813085, 13.542161383684718 ] } },
{ "type": "Feature", "properties": { "geo_id": "KHM-000052", "deped_id": 1020903054.0, "school_name": "Prek Ropeuv", "address": null, "adm0": "KHM", "adm1": "Bantey Meanchey", "adm2": "Mongkol Borei", "adm3": "Ruessei Kraok", "longitude": 102.99502741254182, "latitude": 13.551843385118792 }, "geometry": { "type": "Point", "coordinates": [ 102.995027412541816, 13.551843385118792 ] } },
{ "type": "Feature", "properties": { "geo_id": "KHM-000053", "deped_id": 1020905057.0, "school_name": "Sala Deng", "address": null, "adm0": "KHM", "adm1": "Bantey Meanchey", "adm2": "Mongkol Borei", "adm3": "Ruessei Kraok", "longitude": 103.01165058853516, "latitude": 13.546797714510067 }, "geometry": { "type": "Point", "coordinates": [ 103.011650588535161, 13.546797714510067 ] } },
{ "type": "Feature", "properties": { "geo_id": "KHM-000054", "deped_id": 1020906047.0, "school_name": "Chamkar Ta Doak", "address": null, "adm0": "KHM", "adm1": "Bantey Meanchey", "adm2": "Mongkol Borei", "adm3": "Ruessei Kraok", "longitude": 103.02256505327072, "latitude": 13.533870187025039 }, "geometry": { "type": "Point", "coordinates": [ 103.022565053270725, 13.533870187025039 ] } },
{ "type": "Feature", "properties": { "geo_id": "KHM-000055", "deped_id": 1020908048.0, "school_name": "Chumteav", "address": null, "adm0": "KHM", "adm1": "Bantey Meanchey", "adm2": "Mongkol Borei", "adm3": "Ruessei Kraok", "longitude": 103.02050791387779, "latitude": 13.525720106449812 }, "geometry": { "type": "Point", "coordinates": [ 103.020507913877793, 13.525720106449812 ] } },
{ "type": "Feature", "properties": { "geo_id": "KHM-000056", "deped_id": 1020909051.0, "school_name": "Neang Ket", "address": null, "adm0": "KHM", "adm1": "Bantey Meanchey", "adm2": "Mongkol Borei", "adm3": "Ruessei Kraok", "longitude": 103.00520355075004, "latitude": 13.543402480063074 }, "geometry": { "type": "Point", "coordinates": [ 103.005203550750039, 13.543402480063074 ] } },
{ "type": "Feature", "properties": { "geo_id": "KHM-000057", "deped_id": 1020913050.0, "school_name": "Kauk Svay", "address": null, "adm0": "KHM", "adm1": "Bantey Meanchey", "adm2": "Mongkol Borei", "adm3": "Ruessei Kraok", "longitude": 103.02062928643417, "latitude": 13.541211458722694 }, "geometry": { "type": "Point", "coordinates": [ 103.020629286434172, 13.541211458722694 ] } },
{ "type": "Feature", "properties": { "geo_id": "KHM-000058", "deped_id": 1020914053.0, "school_name": "Wat Luong", "address": null, "adm0": "KHM", "adm1": "Bantey Meanchey", "adm2": "Mongkol Borei", "adm3": "Ruessei Kraok", "longitude": 103.04015093072951, "latitude": 13.540786806811749 }, "geometry": { "type": "Point", "coordinates": [ 103.04015093072951, 13.540786806811749 ] } },
{ "type": "Feature", "properties": { "geo_id": "KHM-000059", "deped_id": 1020916049.0, "school_name": "Koh Keo", "address": null, "adm0": "KHM", "adm1": "Bantey Meanchey", "adm2": "Mongkol Borei", "adm3": "Ruessei Kraok", "longitude": 103.02265498931104, "latitude": 13.545348617573435 }, "geometry": { "type": "Point", "coordinates": [ 103.022654989311036, 13.545348617573435 ] } },
{ "type": "Feature", "properties": { "geo_id": "KHM-000060", "deped_id": 1020917055.0, "school_name": "Russey Kroak", "address": null, "adm0": "KHM", "adm1": "Bantey Meanchey", "adm2": "Mongkol Borei", "adm3": "Ruessei Kraok", "longitude": 103.02373146193123, "latitude": 13.538036690962404 }, "geometry": { "type": "Point", "coordinates": [ 103.023731461931234, 13.538036690962404 ] } },
{ "type": "Feature", "properties": { "geo_id": "KHM-000061", "deped_id": 1020917056.0, "school_name": "Komrou Srok", "address": null, "adm0": "KHM", "adm1": "Bantey Meanchey", "adm2": "Mongkol Borei", "adm3": "Ruessei Kraok", "longitude": 103.02505175558939, "latitude": 13.536989721602032 }, "geometry": { "type": "Point", "coordinates": [ 103.025051755589388, 13.536989721602032 ] } },
{ "type": "Feature", "properties": { "geo_id": "KHM-000062", "deped_id": 1021003059.0, "school_name": "Lor", "address": null, "adm0": "KHM", "adm1": "Bantey Meanchey", "adm2": "Mongkol Borei", "adm3": "Sambuor", "longitude": 103.17913772899, "latitude": 13.472784587754393 }, "geometry": { "type": "Point", "coordinates": [ 103.17913772899, 13.472784587754393 ] } },
{ "type": "Feature", "properties": { "geo_id": "KHM-000063", "deped_id": 1021005060.0, "school_name": "Sambour", "address": null, "adm0": "KHM", "adm1": "Bantey Meanchey", "adm2": "Mongkol Borei", "adm3": "Sambuor", "longitude": 103.19853942531276, "latitude": 13.4656033042455 }, "geometry": { "type": "Point", "coordinates": [ 103.198539425312759, 13.4656033042455 ] } },
{ "type": "Feature", "properties": { "geo_id": "KHM-000064", "deped_id": 1021008061.0, "school_name": "Sras Chhouk", "address": null, "adm0": "KHM", "adm1": "Bantey Meanchey", "adm2": "Mongkol Borei", "adm3": "Sambuor", "longitude": 103.23252579991909, "latitude": 13.452874170198509 }, "geometry": { "type": "Point", "coordinates": [ 103.232525799919088, 13.452874170198509 ] } },
{ "type": "Feature", "properties": { "geo_id": "KHM-000065", "deped_id": 1021010058.0, "school_name": "Chek Angkar", "address": null, "adm0": "KHM", "adm1": "Bantey Meanchey", "adm2": "Mongkol Borei", "adm3": "Sambuor", "longitude": 103.24013327991314, "latitude": 13.431623417038807 }, "geometry": { "type": "Point", "coordinates": [ 103.240133279913138, 13.431623417038807 ] } },
{ "type": "Feature", "properties": { "geo_id": "KHM-000066", "deped_id": 1021011062.0, "school_name": "Thmar Dap", "address": null, "adm0": "KHM", "adm1": "Bantey Meanchey", "adm2": "Mongkol Borei", "adm3": "Sambuor", "longitude": 103.23856118777051, "latitude": 13.415478447487065 }, "geometry": { "type": "Point", "coordinates": [ 103.238561187770514, 13.415478447487065 ] } },
{ "type": "Feature", "properties": { "geo_id": "KHM-000067", "deped_id": 1021103066.0, "school_name": "Tnot", "address": null, "adm0": "KHM", "adm1": "Bantey Meanchey", "adm2": "Mongkol Borei", "adm3": "Soea", "longitude": 102.93071069675317, "latitude": 13.372112086643341 }, "geometry": { "type": "Point", "coordinates": [ 102.930710696753167, 13.372112086643341 ] } },
{ "type": "Feature", "properties": { "geo_id": "KHM-000068", "deped_id": 1021106065.0, "school_name": "Soeu", "address": null, "adm0": "KHM", "adm1": "Bantey Meanchey", "adm2": "Mongkol Borei", "adm3": "Soea", "longitude": 102.93008250094078, "latitude": 13.391627323915472 }, "geometry": { "type": "Point", "coordinates": [ 102.930082500940784, 13.391627323915472 ] } },
{ "type": "Feature", "properties": { "geo_id": "KHM-000069", "deped_id": 1021109064.0, "school_name": "Phlov Damrei Krom", "address": null, "adm0": "KHM", "adm1": "Bantey Meanchey", "adm2": "Mongkol Borei", "adm3": "Soea", "longitude": 102.93023041181958, "latitude": 13.403476307982707 }, "geometry": { "type": "Point", "coordinates": [ 102.930230411819579, 13.403476307982707 ] } },
{ "type": "Feature", "properties": { "geo_id": "KHM-000070", "deped_id": 1021111063.0, "school_name": "Kauk Samrong", "address": null, "adm0": "KHM", "adm1": "Bantey Meanchey", "adm2": "Mongkol Borei", "adm3": "Soea", "longitude": 102.98468350430797, "latitude": 13.381729898175379 }, "geometry": { "type": "Point", "coordinates": [ 102.984683504307966, 13.381729898175379 ] } },
{ "type": "Feature", "properties": { "geo_id": "KHM-000071", "deped_id": 1021112081.0, "school_name": "Balung Chrey", "address": null, "adm0": "KHM", "adm1": "Bantey Meanchey", "adm2": "Mongkol Borei", "adm3": "Soea", "longitude": 102.80430870762005, "latitude": 13.403596223986481 }, "geometry": { "type": "Point", "coordinates": [ 102.804308707620052, 13.403596223986481 ] } },
{ "type": "Feature", "properties": { "geo_id": "KHM-000072", "deped_id": 1021113082.0, "school_name": "O Chup Thmei", "address": null, "adm0": "KHM", "adm1": "Bantey Meanchey", "adm2": "Mongkol Borei", "adm3": "Soea", "longitude": 102.79070545053209, "latitude": 13.413399555990861 }, "geometry": { "type": "Point", "coordinates": [ 102.790705450532087, 13.413399555990861 ] } },
{ "type": "Feature", "properties": { "geo_id": "KHM-000073", "deped_id": 1021114083.0, "school_name": "Chumnik", "address": null, "adm0": "KHM", "adm1": "Bantey Meanchey", "adm2": "Mongkol Borei", "adm3": "Soea", "longitude": 102.83126941107528, "latitude": 13.412097867793239 }, "geometry": { "type": "Point", "coordinates": [ 102.831269411075283, 13.412097867793239 ] } },
{ "type": "Feature", "properties": { "geo_id": "KHM-000074", "deped_id": 1021202070.0, "school_name": "Ta Enn", "address": null, "adm0": "KHM", "adm1": "Bantey Meanchey", "adm2": "Mongkol Borei", "adm3": "Srah Reang", "longitude": 103.0574466699739, "latitude": 13.503866963696494 }, "geometry": { "type": "Point", "coordinates": [ 103.057446669973899, 13.503866963696494 ] } },
{ "type": "Feature", "properties": { "geo_id": "KHM-000075", "deped_id": 1021205069.0, "school_name": "Sras Raing", "address": null, "adm0": "KHM", "adm1": "Bantey Meanchey", "adm2": "Mongkol Borei", "adm3": "Srah Reang", "longitude": 103.06954350005751, "latitude": 13.50414115659199 }, "geometry": { "type": "Point", "coordinates": [ 103.069543500057506, 13.50414115659199 ] } },
{ "type": "Feature", "properties": { "geo_id": "KHM-000076", "deped_id": 1021207068.0, "school_name": "Kauk Srok", "address": null, "adm0": "KHM", "adm1": "Bantey Meanchey", "adm2": "Mongkol Borei", "adm3": "Srah Reang", "longitude": 103.08707198801558, "latitude": 13.500841108530087 }, "geometry": { "type": "Point", "coordinates": [ 103.08707198801558, 13.500841108530087 ] } },
{ "type": "Feature", "properties": { "geo_id": "KHM-000077", "deped_id": 1021209067.0, "school_name": "Kauk Krasaing", "address": null, "adm0": "KHM", "adm1": "Bantey Meanchey", "adm2": "Mongkol Borei", "adm3": "Srah Reang", "longitude": 103.10007793661256, "latitude": 13.497116922912886 }, "geometry": { "type": "Point", "coordinates": [ 103.100077936612564, 13.497116922912886 ] } },
{ "type": "Feature", "properties": { "geo_id": "KHM-000078", "deped_id": 1021301076.0, "school_name": "Preah Sre", "address": null, "adm0": "KHM", "adm1": "Bantey Meanchey", "adm2": "Mongkol Borei", "adm3": "Ta Lam", "longitude": 103.0455015678929, "latitude": 13.518993619298195 }, "geometry": { "type": "Point", "coordinates": [ 103.045501567892899, 13.518993619298195 ] } },
{ "type": "Feature", "properties": { "geo_id": "KHM-000079", "deped_id": 1021302077.0, "school_name": "Ta Lam", "address": null, "adm0": "KHM", "adm1": "Bantey Meanchey", "adm2": "Mongkol Borei", "adm3": "Ta Lam", "longitude": 103.05369206031327, "latitude": 13.520404026237591 }, "geometry": { "type": "Point", "coordinates": [ 103.053692060313267, 13.520404026237591 ] } },
{ "type": "Feature", "properties": { "geo_id": "KHM-000080", "deped_id": 1021304072.0, "school_name": "Boeung Khlaing", "address": null, "adm0": "KHM", "adm1": "Bantey Meanchey", "adm2": "Mongkol Borei", "adm3": "Ta Lam", "longitude": 103.11618221949281, "latitude": 13.516335769147013 }, "geometry": { "type": "Point", "coordinates": [ 103.116182219492813, 13.516335769147013 ] } },
{ "type": "Feature", "properties": { "geo_id": "KHM-000081", "deped_id": 1021305074.0, "school_name": "Chong Kauk", "address": null, "adm0": "KHM", "adm1": "Bantey Meanchey", "adm2": "Mongkol Borei", "adm3": "Ta Lam", "longitude": 103.09969542049672, "latitude": 13.524426746123082 }, "geometry": { "type": "Point", "coordinates": [ 103.099695420496715, 13.524426746123082 ] } },
{ "type": "Feature", "properties": { "geo_id": "KHM-000082", "deped_id": 1021306071.0, "school_name": "Boeung Khlaing Keut", "address": null, "adm0": "KHM", "adm1": "Bantey Meanchey", "adm2": "Mongkol Borei", "adm3": "Ta Lam", "longitude": 103.12292382129965, "latitude": 13.521203664573914 }, "geometry": { "type": "Point", "coordinates": [ 103.122923821299651, 13.521203664573914 ] } },
{ "type": "Feature", "properties": { "geo_id": "KHM-000083", "deped_id": 1021307075.0, "school_name": "Khla Kham Chhke", "address": null, "adm0": "KHM", "adm1": "Bantey Meanchey", "adm2": "Mongkol Borei", "adm3": "Ta Lam", "longitude": 103.13999970466249, "latitude": 13.520418224972458 }, "geometry": { "type": "Point", "coordinates": [ 103.139999704662486, 13.520418224972458 ] } },
{ "type": "Feature", "properties": { "geo_id": "KHM-000084", "deped_id": 1021308073.0, "school_name": "Boeung Veng", "address": null, "adm0": "KHM", "adm1": "Bantey Meanchey", "adm2": "Mongkol Borei", "adm3": "Ta Lam", "longitude": 103.14784413544045, "latitude": 13.49738379711896 }, "geometry": { "type": "Point", "coordinates": [ 103.147844135440451, 13.49738379711896 ] } },
{ "type": "Feature", "properties": { "geo_id": "KHM-000085", "deped_id": 1030101003.0, "school_name": "Roung Vean", "address": null, "adm0": "KHM", "adm1": "Bantey Meanchey", "adm2": "Phnum Srok", "adm3": "Nam Tau", "longitude": 103.41617756539422, "latitude": 13.792734573107847 }, "geometry": { "type": "Point", "coordinates": [ 103.416177565394221, 13.792734573107847 ] } },
{ "type": "Feature", "properties": { "geo_id": "KHM-000086", "deped_id": 1030103005.0, "school_name": "Phoum Thmei", "address": null, "adm0": "KHM", "adm1": "Bantey Meanchey", "adm2": "Phnum Srok", "adm3": "Nam Tau", "longitude": 103.39784986781369, "latitude": 13.820709215790874 }, "geometry": { "type": "Point", "coordinates": [ 103.39784986781369, 13.820709215790874 ] } },
{ "type": "Feature", "properties": { "geo_id": "KHM-000087", "deped_id": 1030108001.0, "school_name": "Nam Tao", "address": null, "adm0": "KHM", "adm1": "Bantey Meanchey", "adm2": "Phnum Srok", "adm3": "Nam Tau", "longitude": 103.39958514009452, "latitude": 13.844258199013904 }, "geometry": { "type": "Point", "coordinates": [ 103.399585140094516, 13.844258199013904 ] } },
{ "type": "Feature", "properties": { "geo_id": "KHM-000088", "deped_id": 1030110030.0, "school_name": "Samrong", "address": null, "adm0": "KHM", "adm1": "Bantey Meanchey", "adm2": "Phnum Srok", "adm3": "Nam Tau", "longitude": 103.40779134318889, "latitude": 13.876725701170532 }, "geometry": { "type": "Point", "coordinates": [ 103.40779134318889, 13.876725701170532 ] } },
{ "type": "Feature", "properties": { "geo_id": "KHM-000089", "deped_id": 1030111032.0, "school_name": "Khnaing", "address": null, "adm0": "KHM", "adm1": "Bantey Meanchey", "adm2": "Phnum Srok", "adm3": "Nam Tau", "longitude": 103.42506101045784, "latitude": 13.89648854878669 }, "geometry": { "type": "Point", "coordinates": [ 103.425061010457839, 13.89648854878669 ] } },
{ "type": "Feature", "properties": { "geo_id": "KHM-000090", "deped_id": 1030113027.0, "school_name": "Thnung", "address": null, "adm0": "KHM", "adm1": "Bantey Meanchey", "adm2": "Phnum Srok", "adm3": "Nam Tau", "longitude": 103.43474203074692, "latitude": 13.912640437888546 }, "geometry": { "type": "Point", "coordinates": [ 103.434742030746918, 13.912640437888546 ] } },
{ "type": "Feature", "properties": { "geo_id": "KHM-000091", "deped_id": 1030114004.0, "school_name": "Sleng", "address": null, "adm0": "KHM", "adm1": "Bantey Meanchey", "adm2": "Phnum Srok", "adm3": "Nam Tau", "longitude": 103.38808713551175, "latitude": 13.805179550211202 }, "geometry": { "type": "Point", "coordinates": [ 103.388087135511753, 13.805179550211202 ] } },
{ "type": "Feature", "properties": { "geo_id": "KHM-000092", "deped_id": 1030115028.0, "school_name": "Yeng Oudom", "address": null, "adm0": "KHM", "adm1": "Bantey Meanchey", "adm2": "Phnum Srok", "adm3": "Poy Char", "longitude": 103.34311788050302, "latitude": 13.835350281318496 }, "geometry": { "type": "Point", "coordinates": [ 103.343117880503016, 13.835350281318496 ] } },
{ "type": "Feature", "properties": { "geo_id": "KHM-000093", "deped_id": 1030115038.0, "school_name": "Poy Yeang", "address": null, "adm0": "KHM", "adm1": "Bantey Meanchey", "adm2": "Phnum Srok", "adm3": "Poy Char", "longitude": 103.33712219285053, "latitude": 13.827762302402073 }, "geometry": { "type": "Point", "coordinates": [ 103.337122192850529, 13.827762302402073 ] } },
{ "type": "Feature", "properties": { "geo_id": "KHM-000094", "deped_id": 1030201006.0, "school_name": "Poy Snuol", "address": null, "adm0": "KHM", "adm1": "Bantey Meanchey", "adm2": "Phnum Srok", "adm3": "Poy Char", "longitude": 103.31564975008452, "latitude": 13.768990640893641 }, "geometry": { "type": "Point", "coordinates": [ 103.315649750084518, 13.768990640893641 ] } },
{ "type": "Feature", "properties": { "geo_id": "KHM-000095", "deped_id": 1030202039.0, "school_name": "Trapaing Char", "address": null, "adm0": "KHM", "adm1": "Bantey Meanchey", "adm2": "Phnum Srok", "adm3": "Poy Char", "longitude": 103.31026665175064, "latitude": 13.767860080862466 }, "geometry": { "type": "Point", "coordinates": [ 103.310266651750638, 13.767860080862466 ] } },
{ "type": "Feature", "properties": { "geo_id": "KHM-000096", "deped_id": 1030203008.0, "school_name": "Trapaing Thmar", "address": null, "adm0": "KHM", "adm1": "Bantey Meanchey", "adm2": "Phnum Srok", "adm3": "Poy Char", "longitude": 103.31521119787443, "latitude": 13.777285205082698 }, "geometry": { "type": "Point", "coordinates": [ 103.315211197874433, 13.777285205082698 ] } },
{ "type": "Feature", "properties": { "geo_id": "KHM-000097", "deped_id": 1030206026.0, "school_name": "Ta Ong", "address": null, "adm0": "KHM", "adm1": "Bantey Meanchey", "adm2": "Phnum Srok", "adm3": "Poy Char", "longitude": 103.32570736778855, "latitude": 13.794159907836992 }, "geometry": { "type": "Point", "coordinates": [ 103.325707367788553, 13.794159907836992 ] } },
{ "type": "Feature", "properties": { "geo_id": "KHM-000098", "deped_id": 1030207007.0, "school_name": "Sambour Pongror", "address": null, "adm0": "KHM", "adm1": "Bantey Meanchey", "adm2": "Phnum Srok", "adm3": "Poy Char", "longitude": 103.32810870988271, "latitude": 13.814088664914848 }, "geometry": { "type": "Point", "coordinates": [ 103.328108709882713, 13.814088664914848 ] } },
{ "type": "Feature", "properties": { "geo_id": "KHM-000099", "deped_id": 1030208031.0, "school_name": "Pongror", "address": null, "adm0": "KHM", "adm1": "Bantey Meanchey", "adm2": "Phnum Srok", "adm3": "Poy Char", "longitude": 103.32847869677504, "latitude": 13.823166103434472 }, "geometry": { "type": "Point", "coordinates": [ 103.328478696775036, 13.823166103434472 ] } },
{ "type": "Feature", "properties": { "geo_id": "KHM-000100", "deped_id": 1030209033.0, "school_name": "Kaun Khleng", "address": null, "adm0": "KHM", "adm1": "Bantey Meanchey", "adm2": "Phnum Srok", "adm3": "Poy Char", "longitude": 103.30134621565469, "latitude": 13.919042207043177 }, "geometry": { "type": "Point", "coordinates": [ 103.301346215654689, 13.919042207043177 ] } },
{ "type": "Feature", "properties": { "geo_id": "KHM-000101", "deped_id": 1030210034.0, "school_name": "Trapaing Peas", "address": null, "adm0": "KHM", "adm1": "Bantey Meanchey", "adm2": "Phnum Srok", "adm3": "Poy Char", "longitude": 103.32481593739716, "latitude": 13.91858090784098 }, "geometry": { "type": "Point", "coordinates": [ 103.324815937397162, 13.91858090784098 ] } },
{ "type": "Feature", "properties": { "geo_id": "KHM-000102", "deped_id": 1030211035.0, "school_name": "Changva Touk", "address": null, "adm0": "KHM", "adm1": "Bantey Meanchey", "adm2": "Phnum Srok", "adm3": "Poy Char", "longitude": 103.31001283210864, "latitude": 13.91318213060778 }, "geometry": { "type": "Point", "coordinates": [ 103.31001283210864, 13.91318213060778 ] } },
{ "type": "Feature", "properties": { "geo_id": "KHM-000103", "deped_id": 1030212036.0, "school_name": "Thminh Trei", "address": null, "adm0": "KHM", "adm1": "Bantey Meanchey", "adm2": "Phnum Srok", "adm3": "Poy Char", "longitude": 103.28734297124835, "latitude": 13.913177672263519 }, "geometry": { "type": "Point", "coordinates": [ 103.28734297124835, 13.913177672263519 ] } },
{ "type": "Feature", "properties": { "geo_id": "KHM-000104", "deped_id": 1030301011.0, "school_name": "Ta Vorng", "address": null, "adm0": "KHM", "adm1": "Bantey Meanchey", "adm2": "Phnum Srok", "adm3": "Ponley", "longitude": 103.22396861239436, "latitude": 13.769593851729244 }, "geometry": { "type": "Point", "coordinates": [ 103.223968612394359, 13.769593851729244 ] } },
{ "type": "Feature", "properties": { "geo_id": "KHM-000105", "deped_id": 1030303014.0, "school_name": "Svay Sar", "address": null, "adm0": "KHM", "adm1": "Bantey Meanchey", "adm2": "Phnum Srok", "adm3": "Ponley", "longitude": 103.18671628067935, "latitude": 13.751128481969754 }, "geometry": { "type": "Point", "coordinates": [ 103.186716280679349, 13.751128481969754 ] } },
{ "type": "Feature", "properties": { "geo_id": "KHM-000106", "deped_id": 1030304013.0, "school_name": "Svay Khmao", "address": null, "adm0": "KHM", "adm1": "Bantey Meanchey", "adm2": "Phnum Srok", "adm3": "Ponley", "longitude": 103.21463175097868, "latitude": 13.78264996317033 }, "geometry": { "type": "Point", "coordinates": [ 103.214631750978683, 13.78264996317033 ] } },
{ "type": "Feature", "properties": { "geo_id": "KHM-000107", "deped_id": 1030305009.0, "school_name": "Ta Sok", "address": null, "adm0": "KHM", "adm1": "Bantey Meanchey", "adm2": "Phnum Srok", "adm3": "Ponley", "longitude": 103.23539759912391, "latitude": 13.76963985834157 }, "geometry": { "type": "Point", "coordinates": [ 103.235397599123914, 13.76963985834157 ] } },
{ "type": "Feature", "properties": { "geo_id": "KHM-000108", "deped_id": 1030306010.0, "school_name": "Po Roam Bon", "address": null, "adm0": "KHM", "adm1": "Bantey Meanchey", "adm2": "Phnum Srok", "adm3": "Ponley", "longitude": 103.24312101256581, "latitude": 13.735882241118849 }, "geometry": { "type": "Point", "coordinates": [ 103.243121012565808, 13.735882241118849 ] } },
{ "type": "Feature", "properties": { "geo_id": "KHM-000109", "deped_id": 1030307012.0, "school_name": "Ponlea Chey", "address": null, "adm0": "KHM", "adm1": "Bantey Meanchey", "adm2": "Phnum Srok", "adm3": "Ponley", "longitude": 103.18597586736679, "latitude": 13.811136547530415 }, "geometry": { "type": "Point", "coordinates": [ 103.185975867366793, 13.811136547530415 ] } },
{ "type": "Feature", "properties": { "geo_id": "KHM-000110", "deped_id": 1030308041.0, "school_name": "Kauk Thlork", "address": null, "adm0": "KHM", "adm1": "Bantey Meanchey", "adm2": "Phnum Srok", "adm3": "Poy Char", "longitude": 103.25142524023268, "latitude": 13.828960626000638 }, "geometry": { "type": "Point", "coordinates": [ 103.251425240232678, 13.828960626000638 ] } },
{ "type": "Feature", "properties": { "geo_id": "KHM-000111", "deped_id": 1030401017.0, "school_name": "Rauk", "address": null, "adm0": "KHM", "adm1": "Bantey Meanchey", "adm2": "Phnum Srok", "adm3": "Spean Sraeng", "longitude": 103.41105800452179, "latitude": 13.700203981099524 }, "geometry": { "type": "Point", "coordinates": [ 103.411058004521792, 13.700203981099524 ] } },
{ "type": "Feature", "properties": { "geo_id": "KHM-000112", "deped_id": 1030402040.0, "school_name": "Mouk Chheang", "address": null, "adm0": "KHM", "adm1": "Bantey Meanchey", "adm2": "Phnum Srok", "adm3": "Spean Sraeng", "longitude": 103.41767359624303, "latitude": 13.713217624310582 }, "geometry": { "type": "Point", "coordinates": [ 103.417673596243034, 13.713217624310582 ] } },
{ "type": "Feature", "properties": { "geo_id": "KHM-000113", "deped_id": 1030403016.0, "school_name": "Spean Sreng", "address": null, "adm0": "KHM", "adm1": "Bantey Meanchey", "adm2": "Phnum Srok", "adm3": "Spean Sraeng", "longitude": 103.42920638035402, "latitude": 13.682060569941797 }, "geometry": { "type": "Point", "coordinates": [ 103.429206380354017, 13.682060569941797 ] } },
{ "type": "Feature", "properties": { "geo_id": "KHM-000114", "deped_id": 1030406002.0, "school_name": "Pongror Kandoal", "address": null, "adm0": "KHM", "adm1": "Bantey Meanchey", "adm2": "Phnum Srok", "adm3": "Spean Sraeng", "longitude": 103.41272792767923, "latitude": 13.674516279117579 }, "geometry": { "type": "Point", "coordinates": [ 103.412727927679228, 13.674516279117579 ] } },
{ "type": "Feature", "properties": { "geo_id": "KHM-000115", "deped_id": 1030501024.0, "school_name": "Chey Oudom", "address": null, "adm0": "KHM", "adm1": "Bantey Meanchey", "adm2": "Phnum Srok", "adm3": "Srah Chik", "longitude": 103.33715899697081, "latitude": 13.744144407968163 }, "geometry": { "type": "Point", "coordinates": [ 103.337158996970814, 13.744144407968163 ] } },
{ "type": "Feature", "properties": { "geo_id": "KHM-000116", "deped_id": 1030507020.0, "school_name": "Ta In", "address": null, "adm0": "KHM", "adm1": "Bantey Meanchey", "adm2": "Phnum Srok", "adm3": "Srah Chik", "longitude": 103.32582145347445, "latitude": 13.71696936509189 }, "geometry": { "type": "Point", "coordinates": [ 103.325821453474447, 13.71696936509189 ] } },
{ "type": "Feature", "properties": { "geo_id": "KHM-000117", "deped_id": 1030508029.0, "school_name": "Kauk Rumchek", "address": null, "adm0": "KHM", "adm1": "Bantey Meanchey", "adm2": "Phnum Srok", "adm3": "Srah Chik", "longitude": 103.30976303308823, "latitude": 13.681934263912973 }, "geometry": { "type": "Point", "coordinates": [ 103.309763033088231, 13.681934263912973 ] } },
{ "type": "Feature", "properties": { "geo_id": "KHM-000118", "deped_id": 1030516022.0, "school_name": "Sras Chik", "address": null, "adm0": "KHM", "adm1": "Bantey Meanchey", "adm2": "Phnum Srok", "adm3": "Srah Chik", "longitude": 103.34279306323947, "latitude": 13.745041012982361 }, "geometry": { "type": "Point", "coordinates": [ 103.342793063239469, 13.745041012982361 ] } },
{ "type": "Feature", "properties": { "geo_id": "KHM-000119", "deped_id": 1030601015.0, "school_name": "Ponley", "address": null, "adm0": "KHM", "adm1": "Bantey Meanchey", "adm2": "Phnum Srok", "adm3": "Phnum Dei", "longitude": 103.37993388996058, "latitude": 13.796493694082516 }, "geometry": { "type": "Point", "coordinates": [ 103.379933889960583, 13.796493694082516 ] } },
{ "type": "Feature", "properties": { "geo_id": "KHM-000120", "deped_id": 1030602025.0, "school_name": "Phnom Dei", "address": null, "adm0": "KHM", "adm1": "Bantey Meanchey", "adm2": "Phnum Srok", "adm3": "Phnum Dei", "longitude": 103.36148533592579, "latitude": 13.737681628909129 }, "geometry": { "type": "Point", "coordinates": [ 103.361485335925792, 13.737681628909129 ] } },
{ "type": "Feature", "properties": { "geo_id": "KHM-000121", "deped_id": 1030603019.0, "school_name": "Kamping Pouy", "address": null, "adm0": "KHM", "adm1": "Bantey Meanchey", "adm2": "Phnum Srok", "adm3": "Phnum Dei", "longitude": 103.37108418875233, "latitude": 13.785633662637888 }, "geometry": { "type": "Point", "coordinates": [ 103.371084188752334, 13.785633662637888 ] } },
{ "type": "Feature", "properties": { "geo_id": "KHM-000122", "deped_id": 1030604018.0, "school_name": "Bosbov", "address": null, "adm0": "KHM", "adm1": "Bantey Meanchey", "adm2": "Phnum Srok", "adm3": "Phnum Dei", "longitude": 103.35408213769516, "latitude": 13.72405148440351 }, "geometry": { "type": "Point", "coordinates": [ 103.354082137695158, 13.72405148440351 ] } },
{ "type": "Feature", "properties": { "geo_id": "KHM-000123", "deped_id": 1030606021.0, "school_name": "Kauk Ses", "address": null, "adm0": "KHM", "adm1": "Bantey Meanchey", "adm2": "Phnum Srok", "adm3": "Phnum Dei", "longitude": 103.35762525634181, "latitude": 13.747598800021153 }, "geometry": { "type": "Point", "coordinates": [ 103.357625256341805, 13.747598800021153 ] } },
{ "type": "Feature", "properties": { "geo_id": "KHM-000124", "deped_id": 1030608023.0, "school_name": "Trapaing Prei", "address": null, "adm0": "KHM", "adm1": "Bantey Meanchey", "adm2": "Phnum Srok", "adm3": "Phnum Dei", "longitude": 103.36859918651513, "latitude": 13.741199723582143 }, "geometry": { "type": "Point", "coordinates": [ 103.368599186515127, 13.741199723582143 ] } },
{ "type": "Feature", "properties": { "geo_id": "KHM-000125", "deped_id": 1030610037.0, "school_name": "Khcheay", "address": null, "adm0": "KHM", "adm1": "Bantey Meanchey", "adm2": "Phnum Srok", "adm3": "Phnum Dei", "longitude": 103.36762612331947, "latitude": 13.730825578659967 }, "geometry": { "type": "Point", "coordinates": [ 103.367626123319468, 13.730825578659967 ] } },
{ "type": "Feature", "properties": { "geo_id": "KHM-000126", "deped_id": 1040107001.0, "school_name": "Chhnour Meanchey", "address": null, "adm0": "KHM", "adm1": "Bantey Meanchey", "adm2": "Preah Netr Preah", "adm3": "Chnuor Mean Chey", "longitude": 103.10618202566666, "latitude": 13.634756933738617 }, "geometry": { "type": "Point", "coordinates": [ 103.106182025666655, 13.634756933738617 ] } },
{ "type": "Feature", "properties": { "geo_id": "KHM-000127", "deped_id": 1040108002.0, "school_name": "Samrong Thom", "address": null, "adm0": "KHM", "adm1": "Bantey Meanchey", "adm2": "Preah Netr Preah", "adm3": "Chnuor Mean Chey", "longitude": 103.08459312472911, "latitude": 13.65787284327266 }, "geometry": { "type": "Point", "coordinates": [ 103.084593124729111, 13.65787284327266 ] } },
{ "type": "Feature", "properties": { "geo_id": "KHM-000128", "deped_id": 1040110049.0, "school_name": "Russey Kandal", "address": null, "adm0": "KHM", "adm1": "Bantey Meanchey", "adm2": "Preah Netr Preah", "adm3": "Chnuor Mean Chey", "longitude": 103.1052200616363, "latitude": 13.639503539011971 }, "geometry": { "type": "Point", "coordinates": [ 103.105220061636302, 13.639503539011971 ] } },
{ "type": "Feature", "properties": { "geo_id": "KHM-000129", "deped_id": 1040111048.0, "school_name": "Rumpeak", "address": null, "adm0": "KHM", "adm1": "Bantey Meanchey", "adm2": "Preah Netr Preah", "adm3": "Chnuor Mean Chey", "longitude": 103.11288491209048, "latitude": 13.621567334542025 }, "geometry": { "type": "Point", "coordinates": [ 103.112884912090479, 13.621567334542025 ] } },
{ "type": "Feature", "properties": { "geo_id": "KHM-000130", "deped_id": 1040201003.0, "school_name": "Chup Vary", "address": null, "adm0": "KHM", "adm1": "Bantey Meanchey", "adm2": "Preah Netr Preah", "adm3": "Chob Vari", "longitude": 103.18592739463976, "latitude": 13.624858452561687 }, "geometry": { "type": "Point", "coordinates": [ 103.185927394639762, 13.624858452561687 ] } },
{ "type": "Feature", "properties": { "geo_id": "KHM-000131", "deped_id": 1040203008.0, "school_name": "Prasat", "address": null, "adm0": "KHM", "adm1": "Bantey Meanchey", "adm2": "Preah Netr Preah", "adm3": "Chob Vari", "longitude": 103.19158562163045, "latitude": 13.631804931211075 }, "geometry": { "type": "Point", "coordinates": [ 103.191585621630452, 13.631804931211075 ] } },
{ "type": "Feature", "properties": { "geo_id": "KHM-000132", "deped_id": 1040204051.0, "school_name": "Krasaing Thmei", "address": null, "adm0": "KHM", "adm1": "Bantey Meanchey", "adm2": "Preah Netr Preah", "adm3": "Chob Vari", "longitude": 103.19341264940481, "latitude": 13.644327234825697 }, "geometry": { "type": "Point", "coordinates": [ 103.193412649404806, 13.644327234825697 ] } },
{ "type": "Feature", "properties": { "geo_id": "KHM-000133", "deped_id": 1040205009.0, "school_name": "Kiri Voan", "address": null, "adm0": "KHM", "adm1": "Bantey Meanchey", "adm2": "Preah Netr Preah", "adm3": "Chob Vari", "longitude": 103.20034955034805, "latitude": 13.658242398409771 }, "geometry": { "type": "Point", "coordinates": [ 103.200349550348051, 13.658242398409771 ] } },
{ "type": "Feature", "properties": { "geo_id": "KHM-000134", "deped_id": 1040207004.0, "school_name": "Chroap Chas", "address": null, "adm0": "KHM", "adm1": "Bantey Meanchey", "adm2": "Preah Netr Preah", "adm3": "Chob Vari", "longitude": 103.17687992686947, "latitude": 13.681461946724992 }, "geometry": { "type": "Point", "coordinates": [ 103.176879926869475, 13.681461946724992 ] } },
{ "type": "Feature", "properties": { "geo_id": "KHM-000135", "deped_id": 1040208046.0, "school_name": "Kak", "address": null, "adm0": "KHM", "adm1": "Bantey Meanchey", "adm2": "Preah Netr Preah", "adm3": "Chob Vari", "longitude": 103.14150578664312, "latitude": 13.672061614103953 }, "geometry": { "type": "Point", "coordinates": [ 103.141505786643123, 13.672061614103953 ] } },
{ "type": "Feature", "properties": { "geo_id": "KHM-000136", "deped_id": 1040209005.0, "school_name": "Kauk Lun", "address": null, "adm0": "KHM", "adm1": "Bantey Meanchey", "adm2": "Preah Netr Preah", "adm3": "Chob Vari", "longitude": 103.15577229039022, "latitude": 13.628613422954574 }, "geometry": { "type": "Point", "coordinates": [ 103.155772290390217, 13.628613422954574 ] } },
{ "type": "Feature", "properties": { "geo_id": "KHM-000137", "deped_id": 1040210007.0, "school_name": "Phnom Chunhchaing", "address": null, "adm0": "KHM", "adm1": "Bantey Meanchey", "adm2": "Preah Netr Preah", "adm3": "Chob Vari", "longitude": 103.16910809352584, "latitude": 13.624915948942387 }, "geometry": { "type": "Point", "coordinates": [ 103.169108093525836, 13.624915948942387 ] } },
{ "type": "Feature", "properties": { "geo_id": "KHM-000138", "deped_id": 1040212045.0, "school_name": "Chroap Thmei", "address": null, "adm0": "KHM", "adm1": "Bantey Meanchey", "adm2": "Preah Netr Preah", "adm3": "Chob Vari", "longitude": 103.19381319839246, "latitude": 13.674264981738251 }, "geometry": { "type": "Point", "coordinates": [ 103.193813198392462, 13.674264981738251 ] } },
{ "type": "Feature", "properties": { "geo_id": "KHM-000139", "deped_id": 1040302014.0, "school_name": "Phnom Leap", "address": null, "adm0": "KHM", "adm1": "Bantey Meanchey", "adm2": "Preah Netr Preah", "adm3": "Phnum Lieb", "longitude": 103.35163805119932, "latitude": 13.596725767619668 }, "geometry": { "type": "Point", "coordinates": [ 103.351638051199316, 13.596725767619668 ] } },
{ "type": "Feature", "properties": { "geo_id": "KHM-000140", "deped_id": 1040304016.0, "school_name": "Trolauk", "address": null, "adm0": "KHM", "adm1": "Bantey Meanchey", "adm2": "Preah Netr Preah", "adm3": "Phnum Lieb", "longitude": 103.33973839834715, "latitude": 13.579111165794371 }, "geometry": { "type": "Point", "coordinates": [ 103.339738398347151, 13.579111165794371 ] } },
{ "type": "Feature", "properties": { "geo_id": "KHM-000141", "deped_id": 1040307013.0, "school_name": "Lor Te", "address": null, "adm0": "KHM", "adm1": "Bantey Meanchey", "adm2": "Preah Netr Preah", "adm3": "Phnum Lieb", "longitude": 103.33753909770772, "latitude": 13.613589156881888 }, "geometry": { "type": "Point", "coordinates": [ 103.337539097707719, 13.613589156881888 ] } },
{ "type": "Feature", "properties": { "geo_id": "KHM-000142", "deped_id": 1040308015.0, "school_name": "Rumduol", "address": null, "adm0": "KHM", "adm1": "Bantey Meanchey", "adm2": "Preah Netr Preah", "adm3": "Phnum Lieb", "longitude": 103.31534584463394, "latitude": 13.606425770647148 }, "geometry": { "type": "Point", "coordinates": [ 103.315345844633939, 13.606425770647148 ] } },
{ "type": "Feature", "properties": { "geo_id": "KHM-000143", "deped_id": 1040310011.0, "school_name": "Kantrorb", "address": null, "adm0": "KHM", "adm1": "Bantey Meanchey", "adm2": "Preah Netr Preah", "adm3": "Phnum Lieb", "longitude": 103.29858283683426, "latitude": 13.592166087651631 }, "geometry": { "type": "Point", "coordinates": [ 103.298582836834257, 13.592166087651631 ] } },
{ "type": "Feature", "properties": { "geo_id": "KHM-000144", "deped_id": 1040313047.0, "school_name": "Kandaol", "address": null, "adm0": "KHM", "adm1": "Bantey Meanchey", "adm2": "Preah Netr Preah", "adm3": "Phnum Lieb", "longitude": 103.27411644152055, "latitude": 13.56248651224019 }, "geometry": { "type": "Point", "coordinates": [ 103.274116441520547, 13.56248651224019 ] } },
{ "type": "Feature", "properties": { "geo_id": "KHM-000145", "deped_id": 1040314010.0, "school_name": "Kambor", "address": null, "adm0": "KHM", "adm1": "Bantey Meanchey", "adm2": "Preah Netr Preah", "adm3": "Phnum Lieb", "longitude": 103.28790463538792, "latitude": 13.53490468703246 }, "geometry": { "type": "Point", "coordinates": [ 103.287904635387918, 13.53490468703246 ] } },
{ "type": "Feature", "properties": { "geo_id": "KHM-000146", "deped_id": 1040315012.0, "school_name": "Krabao", "address": null, "adm0": "KHM", "adm1": "Bantey Meanchey", "adm2": "Preah Netr Preah", "adm3": "Phnum Lieb", "longitude": 103.26148262931484, "latitude": 13.45079815668633 }, "geometry": { "type": "Point", "coordinates": [ 103.261482629314841, 13.45079815668633 ] } },
{ "type": "Feature", "properties": { "geo_id": "KHM-000147", "deped_id": 1040401019.0, "school_name": "Char Krom", "address": null, "adm0": "KHM", "adm1": "Bantey Meanchey", "adm2": "Preah Netr Preah", "adm3": "Prasat", "longitude": 103.41160875497381, "latitude": 13.54852925068589 }, "geometry": { "type": "Point", "coordinates": [ 103.411608754973813, 13.54852925068589 ] } },
{ "type": "Feature", "properties": { "geo_id": "KHM-000148", "deped_id": 1040402054.0, "school_name": "Bat Trang", "address": null, "adm0": "KHM", "adm1": "Bantey Meanchey", "adm2": "Preah Netr Preah", "adm3": "Prasat", "longitude": 103.40870278088218, "latitude": 13.468449726771212 }, "geometry": { "type": "Point", "coordinates": [ 103.40870278088218, 13.468449726771212 ] } },
{ "type": "Feature", "properties": { "geo_id": "KHM-000149", "deped_id": 1040405050.0, "school_name": "Ta Am", "address": null, "adm0": "KHM", "adm1": "Bantey Meanchey", "adm2": "Preah Netr Preah", "adm3": "Prasat", "longitude": 103.39767454657546, "latitude": 13.476831391069183 }, "geometry": { "type": "Point", "coordinates": [ 103.397674546575459, 13.476831391069183 ] } },
{ "type": "Feature", "properties": { "geo_id": "KHM-000150", "deped_id": 1040406017.0, "school_name": "Ampil", "address": null, "adm0": "KHM", "adm1": "Bantey Meanchey", "adm2": "Preah Netr Preah", "adm3": "Prasat", "longitude": 103.41083687445642, "latitude": 13.527010847846265 }, "geometry": { "type": "Point", "coordinates": [ 103.410836874456422, 13.527010847846265 ] } },
{ "type": "Feature", "properties": { "geo_id": "KHM-000151", "deped_id": 1040410020.0, "school_name": "Tunloap", "address": null, "adm0": "KHM", "adm1": "Bantey Meanchey", "adm2": "Preah Netr Preah", "adm3": "Prasat", "longitude": 103.40576789050857, "latitude": 13.516854631969995 }, "geometry": { "type": "Point", "coordinates": [ 103.405767890508571, 13.516854631969995 ] } },
{ "type": "Feature", "properties": { "geo_id": "KHM-000152", "deped_id": 1040413018.0, "school_name": "Anlung Sar", "address": null, "adm0": "KHM", "adm1": "Bantey Meanchey", "adm2": "Preah Netr Preah", "adm3": "Prasat", "longitude": 103.40163690352915, "latitude": 13.499066148128417 }, "geometry": { "type": "Point", "coordinates": [ 103.401636903529152, 13.499066148128417 ] } },
{ "type": "Feature", "properties": { "geo_id": "KHM-000153", "deped_id": 1040501052.0, "school_name": "Poy Kdoeung", "address": null, "adm0": "KHM", "adm1": "Bantey Meanchey", "adm2": "Preah Netr Preah", "adm3": "Preak Netr Preah", "longitude": 103.18196329548543, "latitude": 13.60787370692802 }, "geometry": { "type": "Point", "coordinates": [ 103.181963295485431, 13.60787370692802 ] } },
{ "type": "Feature", "properties": { "geo_id": "KHM-000154", "deped_id": 1040503023.0, "school_name": "Preah Net Preah", "address": null, "adm0": "KHM", "adm1": "Bantey Meanchey", "adm2": "Preah Netr Preah", "adm3": "Preak Netr Preah", "longitude": 103.17839686485054, "latitude": 13.594525235057574 }, "geometry": { "type": "Point", "coordinates": [ 103.178396864850541, 13.594525235057574 ] } },
{ "type": "Feature", "properties": { "geo_id": "KHM-000155", "deped_id": 1040505025.0, "school_name": "Poy Samrong", "address": null, "adm0": "KHM", "adm1": "Bantey Meanchey", "adm2": "Preah Netr Preah", "adm3": "Preak Netr Preah", "longitude": 103.16838196065106, "latitude": 13.593168393239372 }, "geometry": { "type": "Point", "coordinates": [ 103.168381960651061, 13.593168393239372 ] } },
{ "type": "Feature", "properties": { "geo_id": "KHM-000156", "deped_id": 1040507053.0, "school_name": "Poy Ta Pen", "address": null, "adm0": "KHM", "adm1": "Bantey Meanchey", "adm2": "Preah Netr Preah", "adm3": "Preak Netr Preah", "longitude": 103.15986123602116, "latitude": 13.599360044153599 }, "geometry": { "type": "Point", "coordinates": [ 103.159861236021158, 13.599360044153599 ] } },
{ "type": "Feature", "properties": { "geo_id": "KHM-000157", "deped_id": 1040508026.0, "school_name": "Sres Keut", "address": null, "adm0": "KHM", "adm1": "Bantey Meanchey", "adm2": "Preah Netr Preah", "adm3": "Preak Netr Preah", "longitude": 103.16381548319994, "latitude": 13.568207399062521 }, "geometry": { "type": "Point", "coordinates": [ 103.16381548319994, 13.568207399062521 ] } },
{ "type": "Feature", "properties": { "geo_id": "KHM-000158", "deped_id": 1040509027.0, "school_name": "Sres Lech", "address": null, "adm0": "KHM", "adm1": "Bantey Meanchey", "adm2": "Preah Netr Preah", "adm3": "Preak Netr Preah", "longitude": 103.15084021791429, "latitude": 13.573489323738972 }, "geometry": { "type": "Point", "coordinates": [ 103.150840217914293, 13.573489323738972 ] } },
{ "type": "Feature", "properties": { "geo_id": "KHM-000159", "deped_id": 1040511028.0, "school_name": "Sramaoch", "address": null, "adm0": "KHM", "adm1": "Bantey Meanchey", "adm2": "Preah Netr Preah", "adm3": "Preak Netr Preah", "longitude": 103.12121730014775, "latitude": 13.569155745637453 }, "geometry": { "type": "Point", "coordinates": [ 103.121217300147748, 13.569155745637453 ] } },
{ "type": "Feature", "properties": { "geo_id": "KHM-000160", "deped_id": 1040512024.0, "school_name": "Peam Sres", "address": null, "adm0": "KHM", "adm1": "Bantey Meanchey", "adm2": "Preah Netr Preah", "adm3": "Preak Netr Preah", "longitude": 103.1325720440649, "latitude": 13.552556655284306 }, "geometry": { "type": "Point", "coordinates": [ 103.132572044064901, 13.552556655284306 ] } },
{ "type": "Feature", "properties": { "geo_id": "KHM-000161", "deped_id": 1040513022.0, "school_name": "Daun Chreng", "address": null, "adm0": "KHM", "adm1": "Bantey Meanchey", "adm2": "Preah Netr Preah", "adm3": "Preak Netr Preah", "longitude": 103.15140165916488, "latitude": 13.515161073700577 }, "geometry": { "type": "Point", "coordinates": [ 103.151401659164875, 13.515161073700577 ] } },
{ "type": "Feature", "properties": { "geo_id": "KHM-000162", "deped_id": 1040601033.0, "school_name": "Rohal", "address": null, "adm0": "KHM", "adm1": "Bantey Meanchey", "adm2": "Preah Netr Preah", "adm3": "Rohal", "longitude": 103.22940139924845, "latitude": 13.619477561132632 }, "geometry": { "type": "Point", "coordinates": [ 103.229401399248445, 13.619477561132632 ] } },
{ "type": "Feature", "properties": { "geo_id": "KHM-000163", "deped_id": 1040602034.0, "school_name": "Sala Ches", "address": null, "adm0": "KHM", "adm1": "Bantey Meanchey", "adm2": "Preah Netr Preah", "adm3": "Rohal", "longitude": 103.22178756675916, "latitude": 13.620598250408205 }, "geometry": { "type": "Point", "coordinates": [ 103.221787566759161, 13.620598250408205 ] } },
{ "type": "Feature", "properties": { "geo_id": "KHM-000164", "deped_id": 1040604037.0, "school_name": "Tep Korsar", "address": null, "adm0": "KHM", "adm1": "Bantey Meanchey", "adm2": "Preah Netr Preah", "adm3": "Rohal", "longitude": 103.20701937876355, "latitude": 13.621938378626291 }, "geometry": { "type": "Point", "coordinates": [ 103.207019378763547, 13.621938378626291 ] } },
{ "type": "Feature", "properties": { "geo_id": "KHM-000165", "deped_id": 1040605036.0, "school_name": "Snay", "address": null, "adm0": "KHM", "adm1": "Bantey Meanchey", "adm2": "Preah Netr Preah", "adm3": "Rohal", "longitude": 103.20040553784158, "latitude": 13.628895331475601 }, "geometry": { "type": "Point", "coordinates": [ 103.200405537841576, 13.628895331475601 ] } },
{ "type": "Feature", "properties": { "geo_id": "KHM-000166", "deped_id": 1040606029.0, "school_name": "Anlung Thmar", "address": null, "adm0": "KHM", "adm1": "Bantey Meanchey", "adm2": "Preah Netr Preah", "adm3": "Rohal", "longitude": 103.20260480065936, "latitude": 13.639919952854724 }, "geometry": { "type": "Point", "coordinates": [ 103.202604800659358, 13.639919952854724 ] } },
{ "type": "Feature", "properties": { "geo_id": "KHM-000167", "deped_id": 1040607030.0, "school_name": "Popel", "address": null, "adm0": "KHM", "adm1": "Bantey Meanchey", "adm2": "Preah Netr Preah", "adm3": "Rohal", "longitude": 103.21652218673158, "latitude": 13.642496784341359 }, "geometry": { "type": "Point", "coordinates": [ 103.216522186731581, 13.642496784341359 ] } },
{ "type": "Feature", "properties": { "geo_id": "KHM-000168", "deped_id": 1040608031.0, "school_name": "Poy Svay", "address": null, "adm0": "KHM", "adm1": "Bantey Meanchey", "adm2": "Preah Netr Preah", "adm3": "Rohal", "longitude": 103.2275959489312, "latitude": 13.638535863321492 }, "geometry": { "type": "Point", "coordinates": [ 103.227595948931196, 13.638535863321492 ] } },
{ "type": "Feature", "properties": { "geo_id": "KHM-000169", "deped_id": 1040610032.0, "school_name": "Prey Moan", "address": null, "adm0": "KHM", "adm1": "Bantey Meanchey", "adm2": "Preah Netr Preah", "adm3": "Rohal", "longitude": 103.27581246700545, "latitude": 13.614172468724851 }, "geometry": { "type": "Point", "coordinates": [ 103.275812467005451, 13.614172468724851 ] } },
{ "type": "Feature", "properties": { "geo_id": "KHM-000170", "deped_id": 1040611035.0, "school_name": "Stung", "address": null, "adm0": "KHM", "adm1": "Bantey Meanchey", "adm2": "Preah Netr Preah", "adm3": "Rohal", "longitude": 103.20844524244102, "latitude": 13.473510461483782 }, "geometry": { "type": "Point", "coordinates": [ 103.208445242441016, 13.473510461483782 ] } },
{ "type": "Feature", "properties": { "geo_id": "KHM-000171", "deped_id": 1040701038.0, "school_name": "Bantoat Boh", "address": null, "adm0": "KHM", "adm1": "Bantey Meanchey", "adm2": "Preah Netr Preah", "adm3": "Tean Kam", "longitude": 103.25551559481445, "latitude": 13.701379718373387 }, "geometry": { "type": "Point", "coordinates": [ 103.255515594814455, 13.701379718373387 ] } },
{ "type": "Feature", "properties": { "geo_id": "KHM-000172", "deped_id": 1040703039.0, "school_name": "Tien Kam", "address": null, "adm0": "KHM", "adm1": "Bantey Meanchey", "adm2": "Preah Netr Preah", "adm3": "Tean Kam", "longitude": 103.22834445167247, "latitude": 13.713957912261069 }, "geometry": { "type": "Point", "coordinates": [ 103.22834445167247, 13.713957912261069 ] } },
{ "type": "Feature", "properties": { "geo_id": "KHM-000173", "deped_id": 1040801006.0, "school_name": "Smach", "address": null, "adm0": "KHM", "adm1": "Bantey Meanchey", "adm2": "Preah Netr Preah", "adm3": "Tuek Chour", "longitude": 103.35558590079074, "latitude": 13.667256061171184 }, "geometry": { "type": "Point", "coordinates": [ 103.355585900790743, 13.667256061171184 ] } },
{ "type": "Feature", "properties": { "geo_id": "KHM-000174", "deped_id": 1040804041.0, "school_name": "Kauk Kei", "address": null, "adm0": "KHM", "adm1": "Bantey Meanchey", "adm2": "Preah Netr Preah", "adm3": "Tuek Chour", "longitude": 103.34926750421302, "latitude": 13.638741353327207 }, "geometry": { "type": "Point", "coordinates": [ 103.349267504213017, 13.638741353327207 ] } },
{ "type": "Feature", "properties": { "geo_id": "KHM-000175", "deped_id": 1040807040.0, "school_name": "Char Leu", "address": null, "adm0": "KHM", "adm1": "Bantey Meanchey", "adm2": "Preah Netr Preah", "adm3": "Tuek Chour", "longitude": 103.39853265239475, "latitude": 13.652080184548229 }, "geometry": { "type": "Point", "coordinates": [ 103.398532652394749, 13.652080184548229 ] } },
{ "type": "Feature", "properties": { "geo_id": "KHM-000176", "deped_id": 1040809042.0, "school_name": "Phoum Thmei", "address": null, "adm0": "KHM", "adm1": "Bantey Meanchey", "adm2": "Preah Netr Preah", "adm3": "Tuek Chour", "longitude": 103.39490935982981, "latitude": 13.616487700389948 }, "geometry": { "type": "Point", "coordinates": [ 103.394909359829811, 13.616487700389948 ] } },
{ "type": "Feature", "properties": { "geo_id": "KHM-000177", "deped_id": 1040811044.0, "school_name": "Teuk Chor", "address": null, "adm0": "KHM", "adm1": "Bantey Meanchey", "adm2": "Preah Netr Preah", "adm3": "Tuek Chour", "longitude": 103.39925463893049, "latitude": 13.606617779295348 }, "geometry": { "type": "Point", "coordinates": [ 103.399254638930486, 13.606617779295348 ] } },
{ "type": "Feature", "properties": { "geo_id": "KHM-000178", "deped_id": 1040817043.0, "school_name": "Samrong", "address": null, "adm0": "KHM", "adm1": "Bantey Meanchey", "adm2": "Preah Netr Preah", "adm3": "Tuek Chour", "longitude": 103.40172863943715, "latitude": 13.568397790881445 }, "geometry": { "type": "Point", "coordinates": [ 103.401728639437152, 13.568397790881445 ] } },
{ "type": "Feature", "properties": { "geo_id": "KHM-000179", "deped_id": 1040819021.0, "school_name": "Ta Pon", "address": null, "adm0": "KHM", "adm1": "Bantey Meanchey", "adm2": "Preah Netr Preah", "adm3": "Tuek Chour", "longitude": 103.40230718298881, "latitude": 13.592400629518421 }, "geometry": { "type": "Point", "coordinates": [ 103.402307182988807, 13.592400629518421 ] } },
{ "type": "Feature", "properties": { "geo_id": "KHM-000180", "deped_id": 1040901055.0, "school_name": "Bantoat Boh", "address": null, "adm0": "KHM", "adm1": "Bantey Meanchey", "adm2": "Preah Netr Preah", "adm3": "Bos Sbov", "longitude": 103.06249025451115, "latitude": 13.729650089180414 }, "geometry": { "type": "Point", "coordinates": [ 103.062490254511147, 13.729650089180414 ] } },
{ "type": "Feature", "properties": { "geo_id": "KHM-000181", "deped_id": 1040903056.0, "school_name": "Bosbov", "address": null, "adm0": "KHM", "adm1": "Bantey Meanchey", "adm2": "Preah Netr Preah", "adm3": "Bos Sbov", "longitude": 103.04798959100451, "latitude": 13.67090900383657 }, "geometry": { "type": "Point", "coordinates": [ 103.047989591004509, 13.67090900383657 ] } },
{ "type": "Feature", "properties": { "geo_id": "KHM-000182", "deped_id": 1040906057.0, "school_name": "Khchas", "address": null, "adm0": "KHM", "adm1": "Bantey Meanchey", "adm2": "Preah Netr Preah", "adm3": "Bos Sbov", "longitude": 103.11165354813525, "latitude": 13.688068072776057 }, "geometry": { "type": "Point", "coordinates": [ 103.111653548135251, 13.688068072776057 ] } },
{ "type": "Feature", "properties": { "geo_id": "KHM-000183", "deped_id": 1040907058.0, "school_name": "Kbal Khting", "address": null, "adm0": "KHM", "adm1": "Bantey Meanchey", "adm2": "Preah Netr Preah", "adm3": "Bos Sbov", "longitude": 103.06151574538195, "latitude": 13.707590582835998 }, "geometry": { "type": "Point", "coordinates": [ 103.061515745381953, 13.707590582835998 ] } },
{ "type": "Feature", "properties": { "geo_id": "KHM-000184", "deped_id": 1040911059.0, "school_name": "Pring Koang", "address": null, "adm0": "KHM", "adm1": "Bantey Meanchey", "adm2": "Preah Netr Preah", "adm3": "Bos Sbov", "longitude": 103.08293070207952, "latitude": 13.722778279816643 }, "geometry": { "type": "Point", "coordinates": [ 103.082930702079523, 13.722778279816643 ] } },
{ "type": "Feature", "properties": { "geo_id": "KHM-000185", "deped_id": 1040914060.0, "school_name": "Sras Khtum", "address": null, "adm0": "KHM", "adm1": "Bantey Meanchey", "adm2": "Preah Netr Preah", "adm3": "Bos Sbov", "longitude": 103.04343749231363, "latitude": 13.681573618551244 }, "geometry": { "type": "Point", "coordinates": [ 103.043437492313629, 13.681573618551244 ] } },
{ "type": "Feature", "properties": { "geo_id": "KHM-000186", "deped_id": 1040915061.0, "school_name": "Ta Bao", "address": null, "adm0": "KHM", "adm1": "Bantey Meanchey", "adm2": "Preah Netr Preah", "adm3": "Bos Sbov", "longitude": 103.06114367722813, "latitude": 13.683059457040878 }, "geometry": { "type": "Point", "coordinates": [ 103.061143677228131, 13.683059457040878 ] } },
{ "type": "Feature", "properties": { "geo_id": "KHM-000187", "deped_id": 1040917062.0, "school_name": "Trabek", "address": null, "adm0": "KHM", "adm1": "Bantey Meanchey", "adm2": "Preah Netr Preah", "adm3": "Bos Sbov", "longitude": 103.04518835817693, "latitude": 13.65194410806375 }, "geometry": { "type": "Point", "coordinates": [ 103.045188358176929, 13.65194410806375 ] } },
{ "type": "Feature", "properties": { "geo_id": "KHM-000188", "deped_id": 1050101001.0, "school_name": "Changha", "address": null, "adm0": "KHM", "adm1": "Bantey Meanchey", "adm2": "Ou Chrov", "adm3": "Changha", "longitude": 102.88804282062725, "latitude": 13.64774682784531 }, "geometry": { "type": "Point", "coordinates": [ 102.888042820627248, 13.64774682784531 ] } },
{ "type": "Feature", "properties": { "geo_id": "KHM-000189", "deped_id": 1050106002.0, "school_name": "Chhouk Chrey", "address": null, "adm0": "KHM", "adm1": "Bantey Meanchey", "adm2": "Ou Chrov", "adm3": "Changha", "longitude": 102.87490011235369, "latitude": 13.666611850019367 }, "geometry": { "type": "Point", "coordinates": [ 102.874900112353686, 13.666611850019367 ] } },
{ "type": "Feature", "properties": { "geo_id": "KHM-000190", "deped_id": 1050202004.0, "school_name": "Vaing Muong", "address": null, "adm0": "KHM", "adm1": "Bantey Meanchey", "adm2": "Ou Chrov", "adm3": "Koub", "longitude": 102.77561202875675, "latitude": 13.607710254900125 }, "geometry": { "type": "Point", "coordinates": [ 102.775612028756754, 13.607710254900125 ] } },
{ "type": "Feature", "properties": { "geo_id": "KHM-000191", "deped_id": 1050205003.0, "school_name": "Kaub Thom", "address": null, "adm0": "KHM", "adm1": "Bantey Meanchey", "adm2": "Ou Chrov", "adm3": "Koub", "longitude": 102.78340325264705, "latitude": 13.607364089971011 }, "geometry": { "type": "Point", "coordinates": [ 102.783403252647048, 13.607364089971011 ] } },
{ "type": "Feature", "properties": { "geo_id": "KHM-000192", "deped_id": 1050209005.0, "school_name": "O Chreuv", "address": null, "adm0": "KHM", "adm1": "Bantey Meanchey", "adm2": "Ou Chrov", "adm3": "Samraong", "longitude": 102.81209162925333, "latitude": 13.575854750699188 }, "geometry": { "type": "Point", "coordinates": [ 102.812091629253331, 13.575854750699188 ] } },
{ "type": "Feature", "properties": { "geo_id": "KHM-000193", "deped_id": 1050210006.0, "school_name": "Soriya Thmei", "address": null, "adm0": "KHM", "adm1": "Bantey Meanchey", "adm2": "Ou Chrov", "adm3": "Koub", "longitude": 102.8200760549915, "latitude": 13.597729741125043 }, "geometry": { "type": "Point", "coordinates": [ 102.820076054991503, 13.597729741125043 ] } },
{ "type": "Feature", "properties": { "geo_id": "KHM-000194", "deped_id": 1050211030.0, "school_name": "Sala Kraham", "address": null, "adm0": "KHM", "adm1": "Bantey Meanchey", "adm2": "Ou Chrov", "adm3": "Changha", "longitude": 102.85844304174496, "latitude": 13.587444435446743 }, "geometry": { "type": "Point", "coordinates": [ 102.858443041744962, 13.587444435446743 ] } },
{ "type": "Feature", "properties": { "geo_id": "KHM-000195", "deped_id": 1050213016.0, "school_name": "Kaun Trei", "address": null, "adm0": "KHM", "adm1": "Bantey Meanchey", "adm2": "Ou Chrov", "adm3": "Koub", "longitude": 102.76383668274032, "latitude": 13.661333812503027 }, "geometry": { "type": "Point", "coordinates": [ 102.763836682740319, 13.661333812503027 ] } },
{ "type": "Feature", "properties": { "geo_id": "KHM-000196", "deped_id": 1050301007.0, "school_name": "Kaub Tauch", "address": null, "adm0": "KHM", "adm1": "Bantey Meanchey", "adm2": "Ou Chrov", "adm3": "Kuttasat", "longitude": 102.74687234156271, "latitude": 13.588087403499744 }, "geometry": { "type": "Point", "coordinates": [ 102.746872341562707, 13.588087403499744 ] } },
{ "type": "Feature", "properties": { "geo_id": "KHM-000197", "deped_id": 1050303008.0, "school_name": "Kut Sat", "address": null, "adm0": "KHM", "adm1": "Bantey Meanchey", "adm2": "Ou Chrov", "adm3": "Kuttasat", "longitude": 102.76228467059346, "latitude": 13.587647939307141 }, "geometry": { "type": "Point", "coordinates": [ 102.762284670593459, 13.587647939307141 ] } },
{ "type": "Feature", "properties": { "geo_id": "KHM-000198", "deped_id": 1050304036.0, "school_name": "Yeay At", "address": null, "adm0": "KHM", "adm1": "Bantey Meanchey", "adm2": "Ou Chrov", "adm3": "Kuttasat", "longitude": 102.75902238660944, "latitude": 13.548419661156805 }, "geometry": { "type": "Point", "coordinates": [ 102.759022386609445, 13.548419661156805 ] } },
{ "type": "Feature", "properties": { "geo_id": "KHM-000199", "deped_id": 1050305064.0, "school_name": "O Thmat Porng", "address": null, "adm0": "KHM", "adm1": "Bantey Meanchey", "adm2": "Paoy Paet", "adm3": "Nimitt", "longitude": 102.71772193186632, "latitude": 13.576201951700719 }, "geometry": { "type": "Point", "coordinates": [ 102.717721931866322, 13.576201951700719 ] } },
{ "type": "Feature", "properties": { "geo_id": "KHM-000200", "deped_id": 1050503021.0, "school_name": "Samrong", "address": null, "adm0": "KHM", "adm1": "Bantey Meanchey", "adm2": "Ou Chrov", "adm3": "Samraong", "longitude": 102.84431179287661, "latitude": 13.553344837889075 }, "geometry": { "type": "Point", "coordinates": [ 102.84431179287661, 13.553344837889075 ] } },
{ "type": "Feature", "properties": { "geo_id": "KHM-000201", "deped_id": 1050505022.0, "school_name": "Phoum Thmei", "address": null, "adm0": "KHM", "adm1": "Bantey Meanchey", "adm2": "Ou Chrov", "adm3": "Samraong", "longitude": 102.84170471672505, "latitude": 13.562810801106936 }, "geometry": { "type": "Point", "coordinates": [ 102.841704716725047, 13.562810801106936 ] } },
{ "type": "Feature", "properties": { "geo_id": "KHM-000202", "deped_id": 1050507020.0, "school_name": "Bat Trang", "address": null, "adm0": "KHM", "adm1": "Bantey Meanchey", "adm2": "Ou Chrov", "adm3": "Samraong", "longitude": 102.81709020207582, "latitude": 13.565624041925332 }, "geometry": { "type": "Point", "coordinates": [ 102.817090202075818, 13.565624041925332 ] } },
{ "type": "Feature", "properties": { "geo_id": "KHM-000203", "deped_id": 1050508019.0, "school_name": "Anhchanh", "address": null, "adm0": "KHM", "adm1": "Bantey Meanchey", "adm2": "Ou Chrov", "adm3": "Samraong", "longitude": 102.86526947002849, "latitude": 13.559606530445969 }, "geometry": { "type": "Point", "coordinates": [ 102.865269470028494, 13.559606530445969 ] } },
{ "type": "Feature", "properties": { "geo_id": "KHM-000204", "deped_id": 1050603024.0, "school_name": "Sophy", "address": null, "adm0": "KHM", "adm1": "Bantey Meanchey", "adm2": "Ou Chrov", "adm3": "Souphi", "longitude": 102.83452083911558, "latitude": 13.639785392436654 }, "geometry": { "type": "Point", "coordinates": [ 102.834520839115584, 13.639785392436654 ] } },
{ "type": "Feature", "properties": { "geo_id": "KHM-000205", "deped_id": 1050604068.0, "school_name": "Kauk Chark", "address": null, "adm0": "KHM", "adm1": "Bantey Meanchey", "adm2": "Ou Chrov", "adm3": "Souphi", "longitude": 102.84680430630391, "latitude": 13.64755523012597 }, "geometry": { "type": "Point", "coordinates": [ 102.846804306303909, 13.64755523012597 ] } },
{ "type": "Feature", "properties": { "geo_id": "KHM-000206", "deped_id": 1050605023.0, "school_name": "Kauk Prich", "address": null, "adm0": "KHM", "adm1": "Bantey Meanchey", "adm2": "Ou Chrov", "adm3": "Souphi", "longitude": 102.82169774321244, "latitude": 13.62747400802203 }, "geometry": { "type": "Point", "coordinates": [ 102.821697743212439, 13.62747400802203 ] } },
{ "type": "Feature", "properties": { "geo_id": "KHM-000207", "deped_id": 1050606069.0, "school_name": "Boeung Khtom", "address": null, "adm0": "KHM", "adm1": "Bantey Meanchey", "adm2": "Ou Chrov", "adm3": "Souphi", "longitude": 102.77562791754094, "latitude": 13.685900870004389 }, "geometry": { "type": "Point", "coordinates": [ 102.775627917540945, 13.685900870004389 ] } },
{ "type": "Feature", "properties": { "geo_id": "KHM-000208", "deped_id": 1050704026.0, "school_name": "Singh", "address": null, "adm0": "KHM", "adm1": "Bantey Meanchey", "adm2": "Ou Chrov", "adm3": "Soengh", "longitude": 102.85853335439546, "latitude": 13.702436889245794 }, "geometry": { "type": "Point", "coordinates": [ 102.858533354395462, 13.702436889245794 ] } },
{ "type": "Feature", "properties": { "geo_id": "KHM-000209", "deped_id": 1050706025.0, "school_name": "Pongror", "address": null, "adm0": "KHM", "adm1": "Bantey Meanchey", "adm2": "Ou Chrov", "adm3": "Soengh", "longitude": 102.85232078652294, "latitude": 13.707696544045385 }, "geometry": { "type": "Point", "coordinates": [ 102.852320786522938, 13.707696544045385 ] } },
{ "type": "Feature", "properties": { "geo_id": "KHM-000210", "deped_id": 1050901040.0, "school_name": "Prey Chann", "address": null, "adm0": "KHM", "adm1": "Bantey Meanchey", "adm2": "Ou Chrov", "adm3": "Ou Beichoan", "longitude": 102.74314064178479, "latitude": 13.816547308981107 }, "geometry": { "type": "Point", "coordinates": [ 102.743140641784791, 13.816547308981107 ] } },
{ "type": "Feature", "properties": { "geo_id": "KHM-000211", "deped_id": 1050902041.0, "school_name": "Yeang Dangkom", "address": null, "adm0": "KHM", "adm1": "Bantey Meanchey", "adm2": "Ou Chrov", "adm3": "Ou Beichoan", "longitude": 102.74243084106391, "latitude": 13.76438525149238 }, "geometry": { "type": "Point", "coordinates": [ 102.742430841063907, 13.76438525149238 ] } },
{ "type": "Feature", "properties": { "geo_id": "KHM-000212", "deped_id": 1050903042.0, "school_name": "Preav", "address": null, "adm0": "KHM", "adm1": "Bantey Meanchey", "adm2": "Ou Chrov", "adm3": "Ou Beichoan", "longitude": 102.73050015086072, "latitude": 13.707331221385733 }, "geometry": { "type": "Point", "coordinates": [ 102.730500150860721, 13.707331221385733 ] } },
{ "type": "Feature", "properties": { "geo_id": "KHM-000213", "deped_id": 1050904043.0, "school_name": "Snuol Trel 97", "address": null, "adm0": "KHM", "adm1": "Bantey Meanchey", "adm2": "Ou Chrov", "adm3": "Ou Beichoan", "longitude": 102.75734798465328, "latitude": 13.687895599936789 }, "geometry": { "type": "Point", "coordinates": [ 102.757347984653279, 13.687895599936789 ] } },
{ "type": "Feature", "properties": { "geo_id": "KHM-000214", "deped_id": 1050905044.0, "school_name": "Snuol Trel 98", "address": null, "adm0": "KHM", "adm1": "Bantey Meanchey", "adm2": "Ou Chrov", "adm3": "Ou Beichoan", "longitude": 102.74618008172013, "latitude": 13.720332919526584 }, "geometry": { "type": "Point", "coordinates": [ 102.746180081720127, 13.720332919526584 ] } },
{ "type": "Feature", "properties": { "geo_id": "KHM-000215", "deped_id": 1050906017.0, "school_name": "Tumnup Dach", "address": null, "adm0": "KHM", "adm1": "Bantey Meanchey", "adm2": "Ou Chrov", "adm3": "Ou Beichoan", "longitude": 102.68071351654839, "latitude": 13.740301092020964 }, "geometry": { "type": "Point", "coordinates": [ 102.680713516548394, 13.740301092020964 ] } },
{ "type": "Feature", "properties": { "geo_id": "KHM-000216", "deped_id": 1050907018.0, "school_name": "Chauk Chey", "address": null, "adm0": "KHM", "adm1": "Bantey Meanchey", "adm2": "Ou Chrov", "adm3": "Ou Beichoan", "longitude": 102.68775140198271, "latitude": 13.748381806166737 }, "geometry": { "type": "Point", "coordinates": [ 102.687751401982709, 13.748381806166737 ] } },
{ "type": "Feature", "properties": { "geo_id": "KHM-000217", "deped_id": 1050908013.0, "school_name": "La-ang Seila", "address": null, "adm0": "KHM", "adm1": "Bantey Meanchey", "adm2": "Ou Chrov", "adm3": "Ou Beichoan", "longitude": 102.65795439003065, "latitude": 13.731285474752163 }, "geometry": { "type": "Point", "coordinates": [ 102.657954390030653, 13.731285474752163 ] } },
{ "type": "Feature", "properties": { "geo_id": "KHM-000218", "deped_id": 1050909009.0, "school_name": "Yeang Aphewat", "address": null, "adm0": "KHM", "adm1": "Bantey Meanchey", "adm2": "Ou Chrov", "adm3": "Ou Beichoan", "longitude": 102.7367701588721, "latitude": 13.770477736748132 }, "geometry": { "type": "Point", "coordinates": [ 102.736770158872105, 13.770477736748132 ] } },
{ "type": "Feature", "properties": { "geo_id": "KHM-000219", "deped_id": 1060201007.0, "school_name": "Kampong Svay", "address": null, "adm0": "KHM", "adm1": "Bantey Meanchey", "adm2": "Serei Saophoan", "adm3": "Kampong Svay", "longitude": 102.97252274843811, "latitude": 13.597824353902459 }, "geometry": { "type": "Point", "coordinates": [ 102.972522748438109, 13.597824353902459 ] } },
{ "type": "Feature", "properties": { "geo_id": "KHM-000220", "deped_id": 1060201013.0, "school_name": "Sophy", "address": null, "adm0": "KHM", "adm1": "Bantey Meanchey", "adm2": "Serei Saophoan", "adm3": "Kampong Svay", "longitude": 102.97215450840753, "latitude": 13.59115183646235 }, "geometry": { "type": "Point", "coordinates": [ 102.972154508407527, 13.59115183646235 ] } },
{ "type": "Feature", "properties": { "geo_id": "KHM-000221", "deped_id": 1060202008.0, "school_name": "Kangvar", "address": null, "adm0": "KHM", "adm1": "Bantey Meanchey", "adm2": "Serei Saophoan", "adm3": "Kampong Svay", "longitude": 102.96308445173882, "latitude": 13.632983519349757 }, "geometry": { "type": "Point", "coordinates": [ 102.963084451738823, 13.632983519349757 ] } },
{ "type": "Feature", "properties": { "geo_id": "KHM-000222", "deped_id": 1060203010.0, "school_name": "Poay Sophy", "address": null, "adm0": "KHM", "adm1": "Bantey Meanchey", "adm2": "Serei Saophoan", "adm3": "Kampong Svay", "longitude": 102.9670489524097, "latitude": 13.605904237916469 }, "geometry": { "type": "Point", "coordinates": [ 102.967048952409698, 13.605904237916469 ] } },
{ "type": "Feature", "properties": { "geo_id": "KHM-000223", "deped_id": 1060204011.0, "school_name": "Pongror", "address": null, "adm0": "KHM", "adm1": "Bantey Meanchey", "adm2": "Serei Saophoan", "adm3": "Kampong Svay", "longitude": 102.96219546191428, "latitude": 13.621345330013041 }, "geometry": { "type": "Point", "coordinates": [ 102.962195461914277, 13.621345330013041 ] } },
{ "type": "Feature", "properties": { "geo_id": "KHM-000224", "deped_id": 1060206009.0, "school_name": "Koma Sangkruos", "address": null, "adm0": "KHM", "adm1": "Bantey Meanchey", "adm2": "Serei Saophoan", "adm3": "Kampong Svay", "longitude": 102.96046002062756, "latitude": 13.604973737066967 }, "geometry": { "type": "Point", "coordinates": [ 102.960460020627565, 13.604973737066967 ] } },
{ "type": "Feature", "properties": { "geo_id": "KHM-000225", "deped_id": 1060207036.0, "school_name": "Saros Komar", "address": null, "adm0": "KHM", "adm1": "Bantey Meanchey", "adm2": "Serei Saophoan", "adm3": "Kampong Svay", "longitude": 102.94938501450291, "latitude": 13.608931419506696 }, "geometry": { "type": "Point", "coordinates": [ 102.949385014502909, 13.608931419506696 ] } },
{ "type": "Feature", "properties": { "geo_id": "KHM-000226", "deped_id": 1060301015.0, "school_name": "Koh Porng Sat", "address": null, "adm0": "KHM", "adm1": "Bantey Meanchey", "adm2": "Serei Saophoan", "adm3": "Kaoh Pong Satv", "longitude": 103.01603640270019, "latitude": 13.585965045412808 }, "geometry": { "type": "Point", "coordinates": [ 103.016036402700195, 13.585965045412808 ] } },
{ "type": "Feature", "properties": { "geo_id": "KHM-000227", "deped_id": 1060305014.0, "school_name": "Angkea Bos", "address": null, "adm0": "KHM", "adm1": "Bantey Meanchey", "adm2": "Serei Saophoan", "adm3": "Kaoh Pong Satv", "longitude": 103.04664481946875, "latitude": 13.585980804575037 }, "geometry": { "type": "Point", "coordinates": [ 103.046644819468753, 13.585980804575037 ] } },
{ "type": "Feature", "properties": { "geo_id": "KHM-000228", "deped_id": 1060401017.0, "school_name": "Makak", "address": null, "adm0": "KHM", "adm1": "Bantey Meanchey", "adm2": "Serei Saophoan", "adm3": "Mkak", "longitude": 102.95864711593211, "latitude": 13.668671105652452 }, "geometry": { "type": "Point", "coordinates": [ 102.958647115932109, 13.668671105652452 ] } },
{ "type": "Feature", "properties": { "geo_id": "KHM-000229", "deped_id": 1060403018.0, "school_name": "Ta Mar", "address": null, "adm0": "KHM", "adm1": "Bantey Meanchey", "adm2": "Serei Saophoan", "adm3": "Mkak", "longitude": 102.96129718736053, "latitude": 13.685050213992913 }, "geometry": { "type": "Point", "coordinates": [ 102.961297187360529, 13.685050213992913 ] } },
{ "type": "Feature", "properties": { "geo_id": "KHM-000230", "deped_id": 1060405016.0, "school_name": "Chhouk", "address": null, "adm0": "KHM", "adm1": "Bantey Meanchey", "adm2": "Serei Saophoan", "adm3": "Mkak", "longitude": 102.98363054120573, "latitude": 13.669435881335142 }, "geometry": { "type": "Point", "coordinates": [ 102.983630541205727, 13.669435881335142 ] } },
{ "type": "Feature", "properties": { "geo_id": "KHM-000231", "deped_id": 1060501023.0, "school_name": "Sesen", "address": null, "adm0": "KHM", "adm1": "Bantey Meanchey", "adm2": "Serei Saophoan", "adm3": "Ou Ambel", "longitude": 102.97197876616895, "latitude": 13.579221177008133 }, "geometry": { "type": "Point", "coordinates": [ 102.971978766168945, 13.579221177008133 ] } },
{ "type": "Feature", "properties": { "geo_id": "KHM-000232", "deped_id": 1060502019.0, "school_name": "Ko Rothan", "address": null, "adm0": "KHM", "adm1": "Bantey Meanchey", "adm2": "Serei Saophoan", "adm3": "Ou Ambel", "longitude": 102.96663280246959, "latitude": 13.587537125364085 }, "geometry": { "type": "Point", "coordinates": [ 102.96663280246959, 13.587537125364085 ] } },
{ "type": "Feature", "properties": { "geo_id": "KHM-000233", "deped_id": 1060503022.0, "school_name": "Aknakuth", "address": null, "adm0": "KHM", "adm1": "Bantey Meanchey", "adm2": "Serei Saophoan", "adm3": "Ou Ambel", "longitude": 102.96203783764716, "latitude": 13.586848919737351 }, "geometry": { "type": "Point", "coordinates": [ 102.962037837647159, 13.586848919737351 ] } },
{ "type": "Feature", "properties": { "geo_id": "KHM-000234", "deped_id": 1060504021.0, "school_name": "Serei Sophoan", "address": null, "adm0": "KHM", "adm1": "Bantey Meanchey", "adm2": "Serei Saophoan", "adm3": "Ou Ambel", "longitude": 102.95965573910223, "latitude": 13.580196104259612 }, "geometry": { "type": "Point", "coordinates": [ 102.959655739102232, 13.580196104259612 ] } },
{ "type": "Feature", "properties": { "geo_id": "KHM-000235", "deped_id": 1060505020.0, "school_name": "O Ambel", "address": null, "adm0": "KHM", "adm1": "Bantey Meanchey", "adm2": "Serei Saophoan", "adm3": "Ou Ambel", "longitude": 102.95232202349682, "latitude": 13.587555537439487 }, "geometry": { "type": "Point", "coordinates": [ 102.952322023496819, 13.587555537439487 ] } },
{ "type": "Feature", "properties": { "geo_id": "KHM-000236", "deped_id": 1060601025.0, "school_name": "Kantuot", "address": null, "adm0": "KHM", "adm1": "Bantey Meanchey", "adm2": "Serei Saophoan", "adm3": "Phniet", "longitude": 103.00815871446424, "latitude": 13.594451678608396 }, "geometry": { "type": "Point", "coordinates": [ 103.008158714464244, 13.594451678608396 ] } },
{ "type": "Feature", "properties": { "geo_id": "KHM-000237", "deped_id": 1060602024.0, "school_name": "Kampreung", "address": null, "adm0": "KHM", "adm1": "Bantey Meanchey", "adm2": "Serei Saophoan", "adm3": "Phniet", "longitude": 103.02577779571266, "latitude": 13.592224066002899 }, "geometry": { "type": "Point", "coordinates": [ 103.025777795712656, 13.592224066002899 ] } },
{ "type": "Feature", "properties": { "geo_id": "KHM-000238", "deped_id": 1060603026.0, "school_name": "Phoum Thmei", "address": null, "adm0": "KHM", "adm1": "Bantey Meanchey", "adm2": "Serei Saophoan", "adm3": "Phniet", "longitude": 103.03615281716235, "latitude": 13.588925977652854 }, "geometry": { "type": "Point", "coordinates": [ 103.036152817162346, 13.588925977652854 ] } },
{ "type": "Feature", "properties": { "geo_id": "KHM-000239", "deped_id": 1060607027.0, "school_name": "Sala Krao", "address": null, "adm0": "KHM", "adm1": "Bantey Meanchey", "adm2": "Serei Saophoan", "adm3": "Phniet", "longitude": 103.04659231440861, "latitude": 13.622808812583139 }, "geometry": { "type": "Point", "coordinates": [ 103.046592314408613, 13.622808812583139 ] } },
{ "type": "Feature", "properties": { "geo_id": "KHM-000240", "deped_id": 1060703029.0, "school_name": "Serei Sophoan", "address": null, "adm0": "KHM", "adm1": "Bantey Meanchey", "adm2": "Serei Saophoan", "adm3": "Preah Ponlea", "longitude": 102.97522843100036, "latitude": 13.588194518170619 }, "geometry": { "type": "Point", "coordinates": [ 102.97522843100036, 13.588194518170619 ] } },
{ "type": "Feature", "properties": { "geo_id": "KHM-000241", "deped_id": 1060703035.0, "school_name": "Aknouwat", "address": null, "adm0": "KHM", "adm1": "Bantey Meanchey", "adm2": "Serei Saophoan", "adm3": "Preah Ponlea", "longitude": 102.97510681312997, "latitude": 13.586196284847288 }, "geometry": { "type": "Point", "coordinates": [ 102.975106813129969, 13.586196284847288 ] } },
{ "type": "Feature", "properties": { "geo_id": "KHM-000242", "deped_id": 1060706030.0, "school_name": "Preah Ponlea", "address": null, "adm0": "KHM", "adm1": "Bantey Meanchey", "adm2": "Serei Saophoan", "adm3": "Preah Ponlea", "longitude": 102.98041936677124, "latitude": 13.586158042814636 }, "geometry": { "type": "Point", "coordinates": [ 102.980419366771244, 13.586158042814636 ] } },
{ "type": "Feature", "properties": { "geo_id": "KHM-000243", "deped_id": 1060707028.0, "school_name": "Kbal Spean", "address": null, "adm0": "KHM", "adm1": "Bantey Meanchey", "adm2": "Serei Saophoan", "adm3": "Preah Ponlea", "longitude": 102.98567239836444, "latitude": 13.554840859450691 }, "geometry": { "type": "Point", "coordinates": [ 102.985672398364443, 13.554840859450691 ] } },
{ "type": "Feature", "properties": { "geo_id": "KHM-000244", "deped_id": 1060801032.0, "school_name": "Keap", "address": null, "adm0": "KHM", "adm1": "Bantey Meanchey", "adm2": "Serei Saophoan", "adm3": "Tuek Thla", "longitude": 102.94456366357579, "latitude": 13.580885522598033 }, "geometry": { "type": "Point", "coordinates": [ 102.944563663575792, 13.580885522598033 ] } },
{ "type": "Feature", "properties": { "geo_id": "KHM-000245", "deped_id": 1060803034.0, "school_name": "Teuk Thla", "address": null, "adm0": "KHM", "adm1": "Bantey Meanchey", "adm2": "Serei Saophoan", "adm3": "Tuek Thla", "longitude": 102.93372664656307, "latitude": 13.584148733473723 }, "geometry": { "type": "Point", "coordinates": [ 102.933726646563073, 13.584148733473723 ] } },
{ "type": "Feature", "properties": { "geo_id": "KHM-000246", "deped_id": 1060804031.0, "school_name": "Banay", "address": null, "adm0": "KHM", "adm1": "Bantey Meanchey", "adm2": "Serei Saophoan", "adm3": "Tuek Thla", "longitude": 102.92823207677748, "latitude": 13.581762534885664 }, "geometry": { "type": "Point", "coordinates": [ 102.928232076777476, 13.581762534885664 ] } },
{ "type": "Feature", "properties": { "geo_id": "KHM-000247", "deped_id": 1060805033.0, "school_name": "Phnom Bak", "address": null, "adm0": "KHM", "adm1": "Bantey Meanchey", "adm2": "Serei Saophoan", "adm3": "Tuek Thla", "longitude": 102.94905570007148, "latitude": 13.593520332333481 }, "geometry": { "type": "Point", "coordinates": [ 102.949055700071483, 13.593520332333481 ] } },
{ "type": "Feature", "properties": { "geo_id": "KHM-000248", "deped_id": 1070101017.0, "school_name": "Thmar Puok", "address": null, "adm0": "KHM", "adm1": "Bantey Meanchey", "adm2": "Thma Puok", "adm3": "Thma Puok", "longitude": 103.05241381017738, "latitude": 13.9408410715505 }, "geometry": { "type": "Point", "coordinates": [ 103.052413810177384, 13.9408410715505 ] } },
{ "type": "Feature", "properties": { "geo_id": "KHM-000249", "deped_id": 1070105016.0, "school_name": "Phoum Svay", "address": null, "adm0": "KHM", "adm1": "Bantey Meanchey", "adm2": "Thma Puok", "adm3": "Thma Puok", "longitude": 103.06483842496917, "latitude": 13.926660864441857 }, "geometry": { "type": "Point", "coordinates": [ 103.064838424969167, 13.926660864441857 ] } },
{ "type": "Feature", "properties": { "geo_id": "KHM-000250", "deped_id": 1070108018.0, "school_name": "Thnal Dach", "address": null, "adm0": "KHM", "adm1": "Bantey Meanchey", "adm2": "Thma Puok", "adm3": "Thma Puok", "longitude": 103.10542712433599, "latitude": 14.009602354288207 }, "geometry": { "type": "Point", "coordinates": [ 103.105427124335989, 14.009602354288207 ] } },
{ "type": "Feature", "properties": { "geo_id": "KHM-000251", "deped_id": 1070109042.0, "school_name": "Anlung Trach", "address": null, "adm0": "KHM", "adm1": "Bantey Meanchey", "adm2": "Thma Puok", "adm3": "Thma Puok", "longitude": 103.13590501531833, "latitude": 14.022509674899961 }, "geometry": { "type": "Point", "coordinates": [ 103.135905015318329, 14.022509674899961 ] } },
{ "type": "Feature", "properties": { "geo_id": "KHM-000252", "deped_id": 1070201001.0, "school_name": "Kauk Prich", "address": null, "adm0": "KHM", "adm1": "Bantey Meanchey", "adm2": "Thma Puok", "adm3": "Kouk Romiet", "longitude": 102.94817688711601, "latitude": 13.961275928572505 }, "geometry": { "type": "Point", "coordinates": [ 102.948176887116006, 13.961275928572505 ] } },
{ "type": "Feature", "properties": { "geo_id": "KHM-000253", "deped_id": 1070202003.0, "school_name": "Sre La-a", "address": null, "adm0": "KHM", "adm1": "Bantey Meanchey", "adm2": "Thma Puok", "adm3": "Kouk Romiet", "longitude": 102.98007829323959, "latitude": 13.933049090521669 }, "geometry": { "type": "Point", "coordinates": [ 102.980078293239586, 13.933049090521669 ] } },
{ "type": "Feature", "properties": { "geo_id": "KHM-000254", "deped_id": 1070203029.0, "school_name": "Kauk Romeat", "address": null, "adm0": "KHM", "adm1": "Bantey Meanchey", "adm2": "Thma Puok", "adm3": "Kouk Romiet", "longitude": 102.98851335384333, "latitude": 13.993134492598671 }, "geometry": { "type": "Point", "coordinates": [ 102.988513353843331, 13.993134492598671 ] } },
{ "type": "Feature", "properties": { "geo_id": "KHM-000255", "deped_id": 1070205046.0, "school_name": "Sdao", "address": null, "adm0": "KHM", "adm1": "Bantey Meanchey", "adm2": "Thma Puok", "adm3": "Kouk Romiet", "longitude": 102.95049004975982, "latitude": 13.984316857335756 }, "geometry": { "type": "Point", "coordinates": [ 102.950490049759821, 13.984316857335756 ] } },
{ "type": "Feature", "properties": { "geo_id": "KHM-000256", "deped_id": 1070206041.0, "school_name": "Ta Maing", "address": null, "adm0": "KHM", "adm1": "Bantey Meanchey", "adm2": "Thma Puok", "adm3": "Banteay Chhmar", "longitude": 102.90496499217056, "latitude": 14.078519731897966 }, "geometry": { "type": "Point", "coordinates": [ 102.904964992170562, 14.078519731897966 ] } },
{ "type": "Feature", "properties": { "geo_id": "KHM-000257", "deped_id": 1070207026.0, "school_name": "Ekpheap", "address": null, "adm0": "KHM", "adm1": "Bantey Meanchey", "adm2": "Thma Puok", "adm3": "Kouk Romiet", "longitude": 102.96561878066997, "latitude": 13.997163874639355 }, "geometry": { "type": "Point", "coordinates": [ 102.965618780669971, 13.997163874639355 ] } },
{ "type": "Feature", "properties": { "geo_id": "KHM-000258", "deped_id": 1070212027.0, "school_name": "5 Mina", "address": null, "adm0": "KHM", "adm1": "Bantey Meanchey", "adm2": "Thma Puok", "adm3": "Kouk Romiet", "longitude": 102.91795798011715, "latitude": 14.008371663288395 }, "geometry": { "type": "Point", "coordinates": [ 102.917957980117151, 14.008371663288395 ] } },
{ "type": "Feature", "properties": { "geo_id": "KHM-000259", "deped_id": 1070213004.0, "school_name": "Kandoal", "address": null, "adm0": "KHM", "adm1": "Bantey Meanchey", "adm2": "Thma Puok", "adm3": "Kumru", "longitude": 103.00429252065591, "latitude": 13.989948153401553 }, "geometry": { "type": "Point", "coordinates": [ 103.004292520655909, 13.989948153401553 ] } },
{ "type": "Feature", "properties": { "geo_id": "KHM-000260", "deped_id": 1070214005.0, "school_name": "Banteay Mean Rith", "address": null, "adm0": "KHM", "adm1": "Bantey Meanchey", "adm2": "Thma Puok", "adm3": "Kouk Romiet", "longitude": 102.90897261179526, "latitude": 14.011303529460488 }, "geometry": { "type": "Point", "coordinates": [ 102.908972611795264, 14.011303529460488 ] } },
{ "type": "Feature", "properties": { "geo_id": "KHM-000261", "deped_id": 1070215028.0, "school_name": "Samaki Phnom Chhat", "address": null, "adm0": "KHM", "adm1": "Bantey Meanchey", "adm2": "Thma Puok", "adm3": "Kouk Romiet", "longitude": 102.83092686961152, "latitude": 13.951971801779843 }, "geometry": { "type": "Point", "coordinates": [ 102.830926869611517, 13.951971801779843 ] } },