{
"type": "FeatureCollection",
"name": "tan_geo",
"crs": { "type": "name", "properties": { "name": "urn:ogc:def:crs:OGC:1.3:CRS84" } },
"features": [
{ "type": "Feature", "properties": { "geo_id": "TAN-000000", "deped_id": "EM.1865", "school_name": "BANGATA", "address": null, "adm0": "TZA", "adm1": "Arusha", "adm2": "Arusha", "adm3": "Bangata", "longitude": 36.74399954, "latitude": -3.338421019 }, "geometry": { "type": "Point", "coordinates": [ 36.74399954, -3.338421019 ] } },
{ "type": "Feature", "properties": { "geo_id": "TAN-000003", "deped_id": "EM.4582", "school_name": "MIDAWE", "address": null, "adm0": "TZA", "adm1": "Arusha", "adm2": "Arusha", "adm3": "Bangata", "longitude": 36.74861731, "latitude": -3.332989554 }, "geometry": { "type": "Point", "coordinates": [ 36.74861731, -3.332989554 ] } },
{ "type": "Feature", "properties": { "geo_id": "TAN-000006", "deped_id": "EM.3409", "school_name": "SASI", "address": null, "adm0": "TZA", "adm1": "Arusha", "adm2": "Arusha", "adm3": "Bangata", "longitude": 36.74510779, "latitude": -3.365109643 }, "geometry": { "type": "Point", "coordinates": [ 36.74510779, -3.365109643 ] } },
{ "type": "Feature", "properties": { "geo_id": "TAN-000009", "deped_id": "EM.4030", "school_name": "BWAWANI", "address": null, "adm0": "TZA", "adm1": "Arusha", "adm2": "Arusha", "adm3": "Bwawani", "longitude": 36.84478314, "latitude": -3.607894651 }, "geometry": { "type": "Point", "coordinates": [ 36.84478314, -3.607894651 ] } },
{ "type": "Feature", "properties": { "geo_id": "TAN-000012", "deped_id": "EM.11343", "school_name": "BWAWANI", "address": null, "adm0": "TZA", "adm1": "Arusha", "adm2": "Arusha", "adm3": "Bwawani", "longitude": 36.84478314, "latitude": -3.607894651 }, "geometry": { "type": "Point", "coordinates": [ 36.84478314, -3.607894651 ] } },
{ "type": "Feature", "properties": { "geo_id": "TAN-000015", "deped_id": "EM.18772", "school_name": "BWAWANI", "address": null, "adm0": "TZA", "adm1": "Arusha", "adm2": "Arusha", "adm3": "Bwawani", "longitude": 36.84478314, "latitude": -3.607894651 }, "geometry": { "type": "Point", "coordinates": [ 36.84478314, -3.607894651 ] } },
{ "type": "Feature", "properties": { "geo_id": "TAN-000018", "deped_id": "EM.4032", "school_name": "KIGONGONI", "address": null, "adm0": "TZA", "adm1": "Arusha", "adm2": "Arusha", "adm3": "Bwawani", "longitude": 36.77969169, "latitude": -3.536971065 }, "geometry": { "type": "Point", "coordinates": [ 36.77969169, -3.536971065 ] } },
{ "type": "Feature", "properties": { "geo_id": "TAN-000021", "deped_id": "EM.11082", "school_name": "LAMOLOKI", "address": null, "adm0": "TZA", "adm1": "Arusha", "adm2": "Arusha", "adm3": "Bwawani", "longitude": 36.8328811, "latitude": -3.58017525 }, "geometry": { "type": "Point", "coordinates": [ 36.8328811, -3.58017525 ] } },
{ "type": "Feature", "properties": { "geo_id": "TAN-000024", "deped_id": "EM.5790", "school_name": "MUNGUSHI", "address": null, "adm0": "TZA", "adm1": "Arusha", "adm2": "Arusha", "adm3": "Bwawani", "longitude": 36.83414089, "latitude": -3.529985356 }, "geometry": { "type": "Point", "coordinates": [ 36.83414089, -3.529985356 ] } },
{ "type": "Feature", "properties": { "geo_id": "TAN-000027", "deped_id": "EM.2012", "school_name": "OLOKII", "address": null, "adm0": "TZA", "adm1": "Arusha", "adm2": "Arusha", "adm3": "Bwawani", "longitude": 36.81145294, "latitude": -3.589697902 }, "geometry": { "type": "Point", "coordinates": [ 36.81145294, -3.589697902 ] } },
{ "type": "Feature", "properties": { "geo_id": "TAN-000030", "deped_id": "EM.13504", "school_name": "ALBEHIJE", "address": null, "adm0": "TZA", "adm1": "Arusha", "adm2": "Arusha", "adm3": "Kiranyi", "longitude": 36.671719, "latitude": -3.352888 }, "geometry": { "type": "Point", "coordinates": [ 36.671719, -3.352888 ] } },
{ "type": "Feature", "properties": { "geo_id": "TAN-000033", "deped_id": "EM.7602", "school_name": "ENYUATA", "address": null, "adm0": "TZA", "adm1": "Arusha", "adm2": "Arusha", "adm3": "Kiranyi", "longitude": 36.671719, "latitude": -3.352888 }, "geometry": { "type": "Point", "coordinates": [ 36.671719, -3.352888 ] } },
{ "type": "Feature", "properties": { "geo_id": "TAN-000036", "deped_id": "EM.10716", "school_name": "ILKIUREI", "address": null, "adm0": "TZA", "adm1": "Arusha", "adm2": "Arusha", "adm3": "Kiranyi", "longitude": 36.67412596, "latitude": -3.354763761 }, "geometry": { "type": "Point", "coordinates": [ 36.67412596, -3.354763761 ] } },
{ "type": "Feature", "properties": { "geo_id": "TAN-000039", "deped_id": "EM.13029", "school_name": "KIRANYI", "address": null, "adm0": "TZA", "adm1": "Arusha", "adm2": "Arusha", "adm3": "Kiranyi", "longitude": 36.671719, "latitude": -3.352888 }, "geometry": { "type": "Point", "coordinates": [ 36.671719, -3.352888 ] } },
{ "type": "Feature", "properties": { "geo_id": "TAN-000042", "deped_id": "EM.7604", "school_name": "NATEMA", "address": null, "adm0": "TZA", "adm1": "Arusha", "adm2": "Arusha", "adm3": "Olorieni", "longitude": 36.6726563, "latitude": -3.329539931 }, "geometry": { "type": "Point", "coordinates": [ 36.6726563, -3.329539931 ] } },
{ "type": "Feature", "properties": { "geo_id": "TAN-000045", "deped_id": "EM.3408", "school_name": "OLCHOKI", "address": null, "adm0": "TZA", "adm1": "Arusha", "adm2": "Arusha", "adm3": "Olorieni", "longitude": 36.67141831, "latitude": -3.339634156 }, "geometry": { "type": "Point", "coordinates": [ 36.67141831, -3.339634156 ] } },
{ "type": "Feature", "properties": { "geo_id": "TAN-000048", "deped_id": "EM.735", "school_name": "KISONGO", "address": null, "adm0": "TZA", "adm1": "Arusha", "adm2": "Arusha", "adm3": "Ilkiding'a", "longitude": 36.69511761, "latitude": -3.317009675 }, "geometry": { "type": "Point", "coordinates": [ 36.69511761, -3.317009675 ] } },
{ "type": "Feature", "properties": { "geo_id": "TAN-000051", "deped_id": "EM.4578", "school_name": "LESIRAA", "address": null, "adm0": "TZA", "adm1": "Arusha", "adm2": "Arusha", "adm3": "Kisongo", "longitude": 36.50537781, "latitude": -3.397378302 }, "geometry": { "type": "Point", "coordinates": [ 36.50537781, -3.397378302 ] } },
{ "type": "Feature", "properties": { "geo_id": "TAN-000054", "deped_id": "EM.14311", "school_name": "YAKINI", "address": null, "adm0": "TZA", "adm1": "Arusha", "adm2": "Arusha", "adm3": "Kisongo", "longitude": 36.524137, "latitude": -3.379835 }, "geometry": { "type": "Point", "coordinates": [ 36.524137, -3.379835 ] } },
{ "type": "Feature", "properties": { "geo_id": "TAN-000057", "deped_id": "EM.3022", "school_name": "LEMUGUR", "address": null, "adm0": "TZA", "adm1": "Arusha", "adm2": "Monduli", "adm3": "Moita", "longitude": 36.56140491, "latitude": -3.431959762 }, "geometry": { "type": "Point", "coordinates": [ 36.56140491, -3.431959762 ] } },
{ "type": "Feature", "properties": { "geo_id": "TAN-000060", "deped_id": "EM.2011", "school_name": "KISERIAN", "address": null, "adm0": "TZA", "adm1": "Arusha", "adm2": "Arusha", "adm3": "Mlangarini", "longitude": 36.74017041, "latitude": -3.449549452 }, "geometry": { "type": "Point", "coordinates": [ 36.74017041, -3.449549452 ] } },
{ "type": "Feature", "properties": { "geo_id": "TAN-000063", "deped_id": "EM.6944", "school_name": "MANYIRE", "address": null, "adm0": "TZA", "adm1": "Arusha", "adm2": "Arusha", "adm3": "Mlangarini", "longitude": 36.80627208, "latitude": -3.454369582 }, "geometry": { "type": "Point", "coordinates": [ 36.80627208, -3.454369582 ] } },
{ "type": "Feature", "properties": { "geo_id": "TAN-000066", "deped_id": "EM.4035", "school_name": "MLANGARINI", "address": null, "adm0": "TZA", "adm1": "Arusha", "adm2": "Arusha", "adm3": "Mlangarini", "longitude": 36.78700034, "latitude": -3.447273332 }, "geometry": { "type": "Point", "coordinates": [ 36.78700034, -3.447273332 ] } },
{ "type": "Feature", "properties": { "geo_id": "TAN-000069", "deped_id": "EM.9230", "school_name": "MUUNGANO", "address": null, "adm0": "TZA", "adm1": "Arusha", "adm2": "Arusha", "adm3": "Mlangarini", "longitude": 36.73523441, "latitude": -3.482433927 }, "geometry": { "type": "Point", "coordinates": [ 36.73523441, -3.482433927 ] } },
{ "type": "Feature", "properties": { "geo_id": "TAN-000072", "deped_id": "EM.11560", "school_name": "OLOMITU", "address": null, "adm0": "TZA", "adm1": "Arusha", "adm2": "Arusha", "adm3": "Mlangarini", "longitude": 36.75784252, "latitude": -3.41310573 }, "geometry": { "type": "Point", "coordinates": [ 36.75784252, -3.41310573 ] } },
{ "type": "Feature", "properties": { "geo_id": "TAN-000075", "deped_id": "EM.14966", "school_name": "GOODWILL", "address": null, "adm0": "TZA", "adm1": "Arusha", "adm2": "Arusha", "adm3": "Moivo", "longitude": 36.692117, "latitude": -3.35192 }, "geometry": { "type": "Point", "coordinates": [ 36.692117, -3.35192 ] } },
{ "type": "Feature", "properties": { "geo_id": "TAN-000078", "deped_id": "EM.13030", "school_name": "MOIVO", "address": null, "adm0": "TZA", "adm1": "Arusha", "adm2": "Arusha", "adm3": "Moivo", "longitude": 36.70392709, "latitude": -3.350251292 }, "geometry": { "type": "Point", "coordinates": [ 36.70392709, -3.350251292 ] } },
{ "type": "Feature", "properties": { "geo_id": "TAN-000081", "deped_id": "EM.4034", "school_name": "LIKAMBA", "address": null, "adm0": "TZA", "adm1": "Arusha", "adm2": "Arusha", "adm3": "Mussa", "longitude": 36.57237282, "latitude": -3.314554656 }, "geometry": { "type": "Point", "coordinates": [ 36.57237282, -3.314554656 ] } },
{ "type": "Feature", "properties": { "geo_id": "TAN-000084", "deped_id": "EM.14568", "school_name": "LIKAMBA INTEGRITY", "address": null, "adm0": "TZA", "adm1": "Arusha", "adm2": "Arusha", "adm3": "Moivo", "longitude": 36.68660817, "latitude": -3.343437093 }, "geometry": { "type": "Point", "coordinates": [ 36.68660817, -3.343437093 ] } },
{ "type": "Feature", "properties": { "geo_id": "TAN-000086", "deped_id": "EM.1172", "school_name": "MUSA", "address": null, "adm0": "TZA", "adm1": "Arusha", "adm2": "Arusha", "adm3": "Mussa", "longitude": 36.52186485, "latitude": -3.325672976 }, "geometry": { "type": "Point", "coordinates": [ 36.52186485, -3.325672976 ] } },
{ "type": "Feature", "properties": { "geo_id": "TAN-000089", "deped_id": "EM.1562", "school_name": "NENGUNGU", "address": null, "adm0": "TZA", "adm1": "Arusha", "adm2": "Arusha", "adm3": "Moivo", "longitude": 36.68660817, "latitude": -3.343437093 }, "geometry": { "type": "Point", "coordinates": [ 36.68660817, -3.343437093 ] } },
{ "type": "Feature", "properties": { "geo_id": "TAN-000092", "deped_id": "EM.4584", "school_name": "OLCHOROVUS", "address": null, "adm0": "TZA", "adm1": "Arusha", "adm2": "Arusha", "adm3": "Mussa", "longitude": 36.52781272, "latitude": -3.298987965 }, "geometry": { "type": "Point", "coordinates": [ 36.52781272, -3.298987965 ] } },
{ "type": "Feature", "properties": { "geo_id": "TAN-000095", "deped_id": "EM.4581", "school_name": "MARURANI", "address": null, "adm0": "TZA", "adm1": "Arusha", "adm2": "Arusha", "adm3": "Nduruma", "longitude": 36.813139, "latitude": -3.493588 }, "geometry": { "type": "Point", "coordinates": [ 36.813139, -3.493588 ] } },
{ "type": "Feature", "properties": { "geo_id": "TAN-000098", "deped_id": "EM.13506", "school_name": "MSHIKAMANO", "address": null, "adm0": "TZA", "adm1": "Arusha", "adm2": "Arusha", "adm3": "Nduruma", "longitude": 36.81322025, "latitude": -3.480512401 }, "geometry": { "type": "Point", "coordinates": [ 36.81322025, -3.480512401 ] } },
{ "type": "Feature", "properties": { "geo_id": "TAN-000100", "deped_id": "EM.7603", "school_name": "MZIMUNI", "address": null, "adm0": "TZA", "adm1": "Arusha", "adm2": "Arusha", "adm3": "Nduruma", "longitude": 36.80590294, "latitude": -3.505067 }, "geometry": { "type": "Point", "coordinates": [ 36.80590294, -3.505067 ] } },
{ "type": "Feature", "properties": { "geo_id": "TAN-000103", "deped_id": "EM.1173", "school_name": "NDURUMA", "address": null, "adm0": "TZA", "adm1": "Arusha", "adm2": "Arusha", "adm3": "Nduruma", "longitude": 36.79310841, "latitude": -3.474652475 }, "geometry": { "type": "Point", "coordinates": [ 36.79310841, -3.474652475 ] } },
{ "type": "Feature", "properties": { "geo_id": "TAN-000106", "deped_id": "EM.11559", "school_name": "OLDENDERETI", "address": null, "adm0": "TZA", "adm1": "Arusha", "adm2": "Arusha", "adm3": "Nduruma", "longitude": 36.77842571, "latitude": -3.505499178 }, "geometry": { "type": "Point", "coordinates": [ 36.77842571, -3.505499178 ] } },
{ "type": "Feature", "properties": { "geo_id": "TAN-000109", "deped_id": "EM.11562", "school_name": "UMOJA", "address": null, "adm0": "TZA", "adm1": "Arusha", "adm2": "Arusha", "adm3": "Nduruma", "longitude": 36.85399564, "latitude": -3.515313424 }, "geometry": { "type": "Point", "coordinates": [ 36.85399564, -3.515313424 ] } },
{ "type": "Feature", "properties": { "geo_id": "TAN-000112", "deped_id": "EM.2600", "school_name": "OLDONYOSAMBU", "address": null, "adm0": "TZA", "adm1": "Arusha", "adm2": "Ngorongoro", "adm3": "Pinyinyi", "longitude": 35.80490753, "latitude": -2.212404036 }, "geometry": { "type": "Point", "coordinates": [ 35.80490753, -2.212404036 ] } },
{ "type": "Feature", "properties": { "geo_id": "TAN-000115", "deped_id": "EM.2348", "school_name": "OLDONYOSAMBU", "address": null, "adm0": "TZA", "adm1": "Arusha", "adm2": "Ngorongoro", "adm3": "Pinyinyi", "longitude": 35.80490753, "latitude": -2.212404036 }, "geometry": { "type": "Point", "coordinates": [ 35.80490753, -2.212404036 ] } },
{ "type": "Feature", "properties": { "geo_id": "TAN-000118", "deped_id": "EM.6945", "school_name": "MBUYUNI", "address": null, "adm0": "TZA", "adm1": "Arusha", "adm2": "Arusha", "adm3": "Oljoro", "longitude": 36.65584366, "latitude": -3.565600437 }, "geometry": { "type": "Point", "coordinates": [ 36.65584366, -3.565600437 ] } },
{ "type": "Feature", "properties": { "geo_id": "TAN-000121", "deped_id": "EM.6946", "school_name": "MIRONGOINE", "address": null, "adm0": "TZA", "adm1": "Arusha", "adm2": "Arusha Urban", "adm3": "Olasiti", "longitude": 36.60603957, "latitude": -3.405534203 }, "geometry": { "type": "Point", "coordinates": [ 36.60603957, -3.405534203 ] } },
{ "type": "Feature", "properties": { "geo_id": "TAN-000124", "deped_id": "EM.3023", "school_name": "OLJORO", "address": null, "adm0": "TZA", "adm1": "Arusha", "adm2": "Arusha", "adm3": "Oljoro", "longitude": 36.68790039, "latitude": -3.590043545 }, "geometry": { "type": "Point", "coordinates": [ 36.68790039, -3.590043545 ] } },
{ "type": "Feature", "properties": { "geo_id": "TAN-000127", "deped_id": "EM.9231", "school_name": "SITTI MWINYI", "address": null, "adm0": "TZA", "adm1": "Arusha", "adm2": "Arusha", "adm3": "Oljoro", "longitude": 36.660859, "latitude": -3.573593 }, "geometry": { "type": "Point", "coordinates": [ 36.660859, -3.573593 ] } },
{ "type": "Feature", "properties": { "geo_id": "TAN-000128", "deped_id": "EM.6937", "school_name": "EMAOI", "address": null, "adm0": "TZA", "adm1": "Arusha", "adm2": "Arusha", "adm3": "Olmotonyi", "longitude": 36.64896928, "latitude": -3.308792324 }, "geometry": { "type": "Point", "coordinates": [ 36.64896928, -3.308792324 ] } },
{ "type": "Feature", "properties": { "geo_id": "TAN-000131", "deped_id": "EM.2210", "school_name": "OLMOTONYI", "address": null, "adm0": "TZA", "adm1": "Arusha", "adm2": "Arusha", "adm3": "Olmotonyi", "longitude": 36.65706025, "latitude": -3.291175584 }, "geometry": { "type": "Point", "coordinates": [ 36.65706025, -3.291175584 ] } },
{ "type": "Feature", "properties": { "geo_id": "TAN-000134", "deped_id": "EM.991", "school_name": "OLTUROTO", "address": null, "adm0": "TZA", "adm1": "Arusha", "adm2": "Arusha", "adm3": "Moivo", "longitude": 36.68660817, "latitude": -3.343437093 }, "geometry": { "type": "Point", "coordinates": [ 36.68660817, -3.343437093 ] } },
{ "type": "Feature", "properties": { "geo_id": "TAN-000137", "deped_id": "EM.11557", "school_name": "EKENYWA", "address": null, "adm0": "TZA", "adm1": "Arusha", "adm2": "Arusha", "adm3": "Oltrumet", "longitude": 36.62022865, "latitude": -3.295716087 }, "geometry": { "type": "Point", "coordinates": [ 36.62022865, -3.295716087 ] } },
{ "type": "Feature", "properties": { "geo_id": "TAN-000140", "deped_id": "EM.13507", "school_name": "NEW VISION", "address": null, "adm0": "TZA", "adm1": "Arusha", "adm2": "Arusha", "adm3": "Moivo", "longitude": 36.68660817, "latitude": -3.343437093 }, "geometry": { "type": "Point", "coordinates": [ 36.68660817, -3.343437093 ] } },
{ "type": "Feature", "properties": { "geo_id": "TAN-000143", "deped_id": "EM.7605", "school_name": "NGARAMTONI", "address": null, "adm0": "TZA", "adm1": "Arusha", "adm2": "Arusha", "adm3": "Oltrumet", "longitude": 36.63734556, "latitude": -3.310238002 }, "geometry": { "type": "Point", "coordinates": [ 36.63734556, -3.310238002 ] } },
{ "type": "Feature", "properties": { "geo_id": "TAN-000146", "deped_id": "EM.2856", "school_name": "SAMBASHA", "address": null, "adm0": "TZA", "adm1": "Arusha", "adm2": "Arusha", "adm3": "Olmotonyi", "longitude": 36.66969344, "latitude": -3.296502471 }, "geometry": { "type": "Point", "coordinates": [ 36.66969344, -3.296502471 ] } },
{ "type": "Feature", "properties": { "geo_id": "TAN-000149", "deped_id": "EM.11084", "school_name": "TIMBOLO", "address": null, "adm0": "TZA", "adm1": "Arusha", "adm2": "Arusha", "adm3": "Olmotonyi", "longitude": 36.66960032, "latitude": -3.297867221 }, "geometry": { "type": "Point", "coordinates": [ 36.66960032, -3.297867221 ] } },
{ "type": "Feature", "properties": { "geo_id": "TAN-000152", "deped_id": "EM.8200", "school_name": "BARAA", "address": null, "adm0": "TZA", "adm1": "Arusha", "adm2": "Arusha Urban", "adm3": "Baraa", "longitude": 36.7383232, "latitude": -3.389402299 }, "geometry": { "type": "Point", "coordinates": [ 36.7383232, -3.389402299 ] } },
{ "type": "Feature", "properties": { "geo_id": "TAN-000155", "deped_id": "EM.14320", "school_name": "UHURU PEAK", "address": null, "adm0": "TZA", "adm1": "Arusha", "adm2": "Arusha Urban", "adm3": "Baraa", "longitude": 36.73701719, "latitude": -3.370713675 }, "geometry": { "type": "Point", "coordinates": [ 36.73701719, -3.370713675 ] } },
{ "type": "Feature", "properties": { "geo_id": "TAN-000158", "deped_id": "EM.13034", "school_name": "ENALEPO", "address": null, "adm0": "TZA", "adm1": "Arusha", "adm2": "Arusha Urban", "adm3": "Sokoni I", "longitude": 36.67371797, "latitude": -3.433151718 }, "geometry": { "type": "Point", "coordinates": [ 36.67371797, -3.433151718 ] } },
{ "type": "Feature", "properties": { "geo_id": "TAN-000161", "deped_id": "EM.10890", "school_name": "ARUSHA MODERN", "address": null, "adm0": "TZA", "adm1": "Arusha", "adm2": "Arusha Urban", "adm3": "Elerai", "longitude": 36.662811, "latitude": -3.367749 }, "geometry": { "type": "Point", "coordinates": [ 36.662811, -3.367749 ] } },
{ "type": "Feature", "properties": { "geo_id": "TAN-000164", "deped_id": "EM.14314", "school_name": "AZIMIO", "address": null, "adm0": "TZA", "adm1": "Arusha", "adm2": "Arusha Urban", "adm3": "Elerai", "longitude": 36.66281265, "latitude": -3.365303837 }, "geometry": { "type": "Point", "coordinates": [ 36.66281265, -3.365303837 ] } },
{ "type": "Feature", "properties": { "geo_id": "TAN-000167", "deped_id": "EM.2013", "school_name": "BURKA", "address": null, "adm0": "TZA", "adm1": "Arusha", "adm2": "Arusha Urban", "adm3": "Elerai", "longitude": 36.66069119, "latitude": -3.364765402 }, "geometry": { "type": "Point", "coordinates": [ 36.66069119, -3.364765402 ] } },
{ "type": "Feature", "properties": { "geo_id": "TAN-000170", "deped_id": "EM.11086", "school_name": "ELERAI", "address": null, "adm0": "TZA", "adm1": "Arusha", "adm2": "Arusha Urban", "adm3": "Elerai", "longitude": 36.65827125, "latitude": -3.37245214 }, "geometry": { "type": "Point", "coordinates": [ 36.65827125, -3.37245214 ] } },
{ "type": "Feature", "properties": { "geo_id": "TAN-000173", "deped_id": "EM.12383", "school_name": "MOUNT MERU", "address": null, "adm0": "TZA", "adm1": "Arusha", "adm2": "Arusha Urban", "adm3": "Moshono", "longitude": 36.713439, "latitude": -3.443944 }, "geometry": { "type": "Point", "coordinates": [ 36.713439, -3.443944 ] } },
{ "type": "Feature", "properties": { "geo_id": "TAN-000176", "deped_id": "EM.13511", "school_name": "NALOPA", "address": null, "adm0": "TZA", "adm1": "Arusha", "adm2": "Arusha Urban", "adm3": "Engutoto", "longitude": 36.71099546, "latitude": -3.446360719 }, "geometry": { "type": "Point", "coordinates": [ 36.71099546, -3.446360719 ] } },
{ "type": "Feature", "properties": { "geo_id": "TAN-000179", "deped_id": "EM.12385", "school_name": "TUISHIME", "address": null, "adm0": "TZA", "adm1": "Arusha", "adm2": "Arusha Urban", "adm3": "Engutoto", "longitude": 36.70772071, "latitude": -3.420074259 }, "geometry": { "type": "Point", "coordinates": [ 36.70772071, -3.420074259 ] } },
{ "type": "Feature", "properties": { "geo_id": "TAN-000182", "deped_id": "EM.1563", "school_name": "KALOLENI", "address": null, "adm0": "TZA", "adm1": "Arusha", "adm2": "Arusha Urban", "adm3": "Kaloleni", "longitude": 36.69034045, "latitude": -3.367503039 }, "geometry": { "type": "Point", "coordinates": [ 36.69034045, -3.367503039 ] } },
{ "type": "Feature", "properties": { "geo_id": "TAN-000188", "deped_id": "EM.4837", "school_name": "KALOLENI", "address": null, "adm0": "TZA", "adm1": "Arusha", "adm2": "Arusha Urban", "adm3": "Kaloleni", "longitude": 36.69034045, "latitude": -3.367503039 }, "geometry": { "type": "Point", "coordinates": [ 36.69034045, -3.367503039 ] } },
{ "type": "Feature", "properties": { "geo_id": "TAN-000194", "deped_id": "EM.6152", "school_name": "KALOLENI", "address": null, "adm0": "TZA", "adm1": "Arusha", "adm2": "Arusha Urban", "adm3": "Kaloleni", "longitude": 36.69034045, "latitude": -3.367503039 }, "geometry": { "type": "Point", "coordinates": [ 36.69034045, -3.367503039 ] } },
{ "type": "Feature", "properties": { "geo_id": "TAN-000200", "deped_id": "EM.13036", "school_name": "MAKUMBUSHO", "address": null, "adm0": "TZA", "adm1": "Arusha", "adm2": "Arusha Urban", "adm3": "Kaloleni", "longitude": 36.69039582, "latitude": -3.366906554 }, "geometry": { "type": "Point", "coordinates": [ 36.69039582, -3.366906554 ] } },
{ "type": "Feature", "properties": { "geo_id": "TAN-000203", "deped_id": "EM.295", "school_name": "UHURU", "address": null, "adm0": "TZA", "adm1": "Arusha", "adm2": "Arusha Urban", "adm3": "Kati", "longitude": 36.688256, "latitude": -3.374163 }, "geometry": { "type": "Point", "coordinates": [ 36.688256, -3.374163 ] } },
{ "type": "Feature", "properties": { "geo_id": "TAN-000206", "deped_id": "EM.1564", "school_name": "KIMANDOLU", "address": null, "adm0": "TZA", "adm1": "Arusha", "adm2": "Arusha Urban", "adm3": "Kimandolu", "longitude": 36.71670983, "latitude": -3.373007391 }, "geometry": { "type": "Point", "coordinates": [ 36.71670983, -3.373007391 ] } },
{ "type": "Feature", "properties": { "geo_id": "TAN-000209", "deped_id": "EM.13888", "school_name": "LADY OF MERCY", "address": null, "adm0": "TZA", "adm1": "Arusha", "adm2": "Arusha Urban", "adm3": "Kimandolu", "longitude": 36.718853, "latitude": -3.375096 }, "geometry": { "type": "Point", "coordinates": [ 36.718853, -3.375096 ] } },
{ "type": "Feature", "properties": { "geo_id": "TAN-000211", "deped_id": "EM.5792", "school_name": "LEMARA", "address": null, "adm0": "TZA", "adm1": "Arusha", "adm2": "Arusha Urban", "adm3": "Lemara", "longitude": 36.69601578, "latitude": -3.40196676 }, "geometry": { "type": "Point", "coordinates": [ 36.69601578, -3.40196676 ] } },
{ "type": "Feature", "properties": { "geo_id": "TAN-000214", "deped_id": "EM.11566", "school_name": "NOTRE DAME", "address": null, "adm0": "TZA", "adm1": "Arusha", "adm2": "Arusha Urban", "adm3": "Lemara", "longitude": 36.698958, "latitude": -3.417685 }, "geometry": { "type": "Point", "coordinates": [ 36.698958, -3.417685 ] } },
{ "type": "Feature", "properties": { "geo_id": "TAN-000217", "deped_id": "EM.12384", "school_name": "SHALOM", "address": null, "adm0": "TZA", "adm1": "Arusha", "adm2": "Arusha Urban", "adm3": "Lemara", "longitude": 36.698958, "latitude": -3.417685 }, "geometry": { "type": "Point", "coordinates": [ 36.698958, -3.417685 ] } },
{ "type": "Feature", "properties": { "geo_id": "TAN-000220", "deped_id": "EM.8275", "school_name": "LEVOLOSI", "address": null, "adm0": "TZA", "adm1": "Arusha", "adm2": "Arusha Urban", "adm3": "Levolosi", "longitude": 36.68093467, "latitude": -3.366305468 }, "geometry": { "type": "Point", "coordinates": [ 36.68093467, -3.366305468 ] } },
{ "type": "Feature", "properties": { "geo_id": "TAN-000223", "deped_id": "EM.13887", "school_name": "HOPE", "address": null, "adm0": "TZA", "adm1": "Arusha", "adm2": "Arusha Urban", "adm3": "Moshono", "longitude": 36.735931, "latitude": -3.414855 }, "geometry": { "type": "Point", "coordinates": [ 36.735931, -3.414855 ] } },
{ "type": "Feature", "properties": { "geo_id": "TAN-000226", "deped_id": "EM.1770", "school_name": "MOSHONO", "address": null, "adm0": "TZA", "adm1": "Arusha", "adm2": "Arusha Urban", "adm3": "Moshono", "longitude": 36.735931, "latitude": -3.414855 }, "geometry": { "type": "Point", "coordinates": [ 36.735931, -3.414855 ] } },
{ "type": "Feature", "properties": { "geo_id": "TAN-000229", "deped_id": "EM.6950", "school_name": "OLKEREYAN", "address": null, "adm0": "TZA", "adm1": "Arusha", "adm2": "Arusha Urban", "adm3": "Moshono", "longitude": 36.735931, "latitude": -3.414855 }, "geometry": { "type": "Point", "coordinates": [ 36.735931, -3.414855 ] } },
{ "type": "Feature", "properties": { "geo_id": "TAN-000230", "deped_id": "EM.13515", "school_name": "WEMA", "address": null, "adm0": "TZA", "adm1": "Arusha", "adm2": "Arusha Urban", "adm3": "Moshono", "longitude": 36.735931, "latitude": -3.414855 }, "geometry": { "type": "Point", "coordinates": [ 36.735931, -3.414855 ] } },
{ "type": "Feature", "properties": { "geo_id": "TAN-000233", "deped_id": "EM.12380", "school_name": "LISE", "address": null, "adm0": "TZA", "adm1": "Arusha", "adm2": "Arusha Urban", "adm3": "Ngarenaro", "longitude": 36.67409127, "latitude": -3.365620175 }, "geometry": { "type": "Point", "coordinates": [ 36.67409127, -3.365620175 ] } },
{ "type": "Feature", "properties": { "geo_id": "TAN-000236", "deped_id": "EM.13510", "school_name": "MWANGAZA", "address": null, "adm0": "TZA", "adm1": "Arusha", "adm2": "Arusha Urban", "adm3": "Unga Ltd", "longitude": 36.67818316, "latitude": -3.377309092 }, "geometry": { "type": "Point", "coordinates": [ 36.67818316, -3.377309092 ] } },
{ "type": "Feature", "properties": { "geo_id": "TAN-000239", "deped_id": "EM.11569", "school_name": "SWIFTS", "address": null, "adm0": "TZA", "adm1": "Arusha", "adm2": "Arusha Urban", "adm3": "Ngarenaro", "longitude": 36.675485, "latitude": -3.368718 }, "geometry": { "type": "Point", "coordinates": [ 36.675485, -3.368718 ] } },
{ "type": "Feature", "properties": { "geo_id": "TAN-000240", "deped_id": "EM.14312", "school_name": "ARUSHA ALLIANCE", "address": null, "adm0": "TZA", "adm1": "Arusha", "adm2": "Arusha Urban", "adm3": "Olasiti", "longitude": 36.652815, "latitude": -3.41581 }, "geometry": { "type": "Point", "coordinates": [ 36.652815, -3.41581 ] } },
{ "type": "Feature", "properties": { "geo_id": "TAN-000243", "deped_id": "EM.8201", "school_name": "BURKA ESTATE", "address": null, "adm0": "TZA", "adm1": "Arusha", "adm2": "Arusha Urban", "adm3": "Olasiti", "longitude": 36.622995, "latitude": -3.400281 }, "geometry": { "type": "Point", "coordinates": [ 36.622995, -3.400281 ] } },
{ "type": "Feature", "properties": { "geo_id": "TAN-000246", "deped_id": "EM.13508", "school_name": "LUCKY VICENT", "address": null, "adm0": "TZA", "adm1": "Arusha", "adm2": "Arusha Urban", "adm3": "Olasiti", "longitude": 36.654843, "latitude": -3.410138 }, "geometry": { "type": "Point", "coordinates": [ 36.654843, -3.410138 ] } },
{ "type": "Feature", "properties": { "geo_id": "TAN-000249", "deped_id": "EM.993", "school_name": "OLASITI", "address": null, "adm0": "TZA", "adm1": "Arusha", "adm2": "Arusha Urban", "adm3": "Olasiti", "longitude": 36.646474, "latitude": -3.400644 }, "geometry": { "type": "Point", "coordinates": [ 36.646474, -3.400644 ] } },
{ "type": "Feature", "properties": { "geo_id": "TAN-000252", "deped_id": "EM.11563", "school_name": "ASSUMPTION", "address": null, "adm0": "TZA", "adm1": "Arusha", "adm2": "Arusha Urban", "adm3": "Oloirieni", "longitude": 36.70735834, "latitude": -3.383073683 }, "geometry": { "type": "Point", "coordinates": [ 36.70735834, -3.383073683 ] } },
{ "type": "Feature", "properties": { "geo_id": "TAN-000255", "deped_id": "EM.14570", "school_name": "BIBLE BAPTIST", "address": null, "adm0": "TZA", "adm1": "Arusha", "adm2": "Arusha Urban", "adm3": "Sokoni I", "longitude": 36.67371797, "latitude": -3.433151718 }, "geometry": { "type": "Point", "coordinates": [ 36.67371797, -3.433151718 ] } },
{ "type": "Feature", "properties": { "geo_id": "TAN-000257", "deped_id": "EM.12381", "school_name": "LOAMO", "address": null, "adm0": "TZA", "adm1": "Arusha", "adm2": "Arusha Urban", "adm3": "Sokoni I", "longitude": 36.67371797, "latitude": -3.433151718 }, "geometry": { "type": "Point", "coordinates": [ 36.67371797, -3.433151718 ] } },
{ "type": "Feature", "properties": { "geo_id": "TAN-000260", "deped_id": "EM.7608", "school_name": "OLOIRIEN", "address": null, "adm0": "TZA", "adm1": "Arusha", "adm2": "Arusha Urban", "adm3": "Kimandolu", "longitude": 36.71225601, "latitude": -3.381232134 }, "geometry": { "type": "Point", "coordinates": [ 36.71225601, -3.381232134 ] } },
{ "type": "Feature", "properties": { "geo_id": "TAN-000263", "deped_id": "EM.2857", "school_name": "KIJENGE", "address": null, "adm0": "TZA", "adm1": "Arusha", "adm2": "Arusha Urban", "adm3": "Sekei", "longitude": 36.70545553, "latitude": -3.377473565 }, "geometry": { "type": "Point", "coordinates": [ 36.70545553, -3.377473565 ] } },
{ "type": "Feature", "properties": { "geo_id": "TAN-000266", "deped_id": "EM.11564", "school_name": "KILIMANI", "address": null, "adm0": "TZA", "adm1": "Arusha", "adm2": "Arusha Urban", "adm3": "Moivo", "longitude": 36.70204607, "latitude": -3.362278739 }, "geometry": { "type": "Point", "coordinates": [ 36.70204607, -3.362278739 ] } },
{ "type": "Feature", "properties": { "geo_id": "TAN-000269", "deped_id": "EM.657", "school_name": "NAURA", "address": null, "adm0": "TZA", "adm1": "Arusha", "adm2": "Arusha Urban", "adm3": "Sekei", "longitude": 36.700123, "latitude": -3.368775 }, "geometry": { "type": "Point", "coordinates": [ 36.700123, -3.368775 ] } },
{ "type": "Feature", "properties": { "geo_id": "TAN-000272", "deped_id": "EM.13038", "school_name": "PRIME", "address": null, "adm0": "TZA", "adm1": "Arusha", "adm2": "Arusha Urban", "adm3": "Sekei", "longitude": 36.700123, "latitude": -3.368775 }, "geometry": { "type": "Point", "coordinates": [ 36.700123, -3.368775 ] } },
{ "type": "Feature", "properties": { "geo_id": "TAN-000275", "deped_id": "EM.302", "school_name": "SANAWARI", "address": null, "adm0": "TZA", "adm1": "Arusha", "adm2": "Arusha Urban", "adm3": "Moivo", "longitude": 36.69443288, "latitude": -3.359946558 }, "geometry": { "type": "Point", "coordinates": [ 36.69443288, -3.359946558 ] } },
{ "type": "Feature", "properties": { "geo_id": "TAN-000278", "deped_id": "EM.12377", "school_name": "GREEN VALLEY", "address": null, "adm0": "TZA", "adm1": "Arusha", "adm2": "Arusha Urban", "adm3": "Sombetini", "longitude": 36.66378571, "latitude": -3.402187247 }, "geometry": { "type": "Point", "coordinates": [ 36.66378571, -3.402187247 ] } },
{ "type": "Feature", "properties": { "geo_id": "TAN-000281", "deped_id": "EM.13035", "school_name": "HIGH VIEW", "address": null, "adm0": "TZA", "adm1": "Arusha", "adm2": "Arusha Urban", "adm3": "Sombetini", "longitude": 36.662892, "latitude": -3.390431 }, "geometry": { "type": "Point", "coordinates": [ 36.662892, -3.390431 ] } },
{ "type": "Feature", "properties": { "geo_id": "TAN-000284", "deped_id": "EM.2344", "school_name": "SOMBETINI", "address": null, "adm0": "TZA", "adm1": "Arusha", "adm2": "Arusha Urban", "adm3": "Sombetini", "longitude": 36.66710668, "latitude": -3.390190864 }, "geometry": { "type": "Point", "coordinates": [ 36.66710668, -3.390190864 ] } },
{ "type": "Feature", "properties": { "geo_id": "TAN-000287", "deped_id": "EM.7607", "school_name": "MKONOO", "address": null, "adm0": "TZA", "adm1": "Arusha", "adm2": "Arusha Urban", "adm3": "Terrat", "longitude": 36.680992, "latitude": -3.491933 }, "geometry": { "type": "Point", "coordinates": [ 36.680992, -3.491933 ] } },
{ "type": "Feature", "properties": { "geo_id": "TAN-000290", "deped_id": "EM.10549", "school_name": "ENGIRA", "address": null, "adm0": "TZA", "adm1": "Arusha", "adm2": "Arusha Urban", "adm3": "Lemara", "longitude": 36.69761622, "latitude": -3.394675565 }, "geometry": { "type": "Point", "coordinates": [ 36.69761622, -3.394675565 ] } },
{ "type": "Feature", "properties": { "geo_id": "TAN-000293", "deped_id": "EM.10891", "school_name": "HIGHRIDGE", "address": null, "adm0": "TZA", "adm1": "Arusha", "adm2": "Arusha Urban", "adm3": "Oloirieni", "longitude": 36.70661343, "latitude": -3.393820178 }, "geometry": { "type": "Point", "coordinates": [ 36.70661343, -3.393820178 ] } },
{ "type": "Feature", "properties": { "geo_id": "TAN-000296", "deped_id": "EM.2755", "school_name": "THEMI", "address": null, "adm0": "TZA", "adm1": "Arusha", "adm2": "Arusha Urban", "adm3": "Themi", "longitude": 36.693412, "latitude": -3.38094329 }, "geometry": { "type": "Point", "coordinates": [ 36.693412, -3.38094329 ] } },
{ "type": "Feature", "properties": { "geo_id": "TAN-000299", "deped_id": "EM.13512", "school_name": "SALEI", "address": null, "adm0": "TZA", "adm1": "Arusha", "adm2": "Arusha Urban", "adm3": "Unga Ltd", "longitude": 36.679798, "latitude": -3.380318 }, "geometry": { "type": "Point", "coordinates": [ 36.679798, -3.380318 ] } },
{ "type": "Feature", "properties": { "geo_id": "TAN-000302", "deped_id": "EM.7609", "school_name": "DUMBECHAND", "address": null, "adm0": "TZA", "adm1": "Arusha", "adm2": "Karatu", "adm3": "Baray", "longitude": 35.28516904, "latitude": -3.609654752 }, "geometry": { "type": "Point", "coordinates": [ 35.28516904, -3.609654752 ] } },
{ "type": "Feature", "properties": { "geo_id": "TAN-000305", "deped_id": "EM.14578", "school_name": "ENDESH", "address": null, "adm0": "TZA", "adm1": "Manyara", "adm2": "Karatu", "adm3": "Baray", "longitude": 34.91017645, "latitude": -3.817911456 }, "geometry": { "type": "Point", "coordinates": [ 34.91017645, -3.817911456 ] } },
{ "type": "Feature", "properties": { "geo_id": "TAN-000308", "deped_id": "EM.5796", "school_name": "MANG'OLA NT", "address": null, "adm0": "TZA", "adm1": "Arusha", "adm2": "Karatu", "adm3": "Baray", "longitude": 35.31068921, "latitude": -3.576107554 }, "geometry": { "type": "Point", "coordinates": [ 35.31068921, -3.576107554 ] } },
{ "type": "Feature", "properties": { "geo_id": "TAN-000311", "deped_id": "EM.10720", "school_name": "MATALA", "address": null, "adm0": "TZA", "adm1": "Singida", "adm2": "Mkalama", "adm3": "Mwangeza", "longitude": 34.72249733, "latitude": -3.900619783 }, "geometry": { "type": "Point", "coordinates": [ 34.72249733, -3.900619783 ] } },
{ "type": "Feature", "properties": { "geo_id": "TAN-000314", "deped_id": "EM.10721", "school_name": "MBUGANYEKUNDU", "address": null, "adm0": "TZA", "adm1": "Arusha", "adm2": "Karatu", "adm3": "Baray", "longitude": 35.34765036, "latitude": -3.560149061 }, "geometry": { "type": "Point", "coordinates": [ 35.34765036, -3.560149061 ] } },
{ "type": "Feature", "properties": { "geo_id": "TAN-000317", "deped_id": "EM.13893", "school_name": "MOHEDAGEW", "address": null, "adm0": "TZA", "adm1": "Arusha", "adm2": "Karatu", "adm3": "Baray", "longitude": 34.98025495, "latitude": -3.785075461 }, "geometry": { "type": "Point", "coordinates": [ 34.98025495, -3.785075461 ] } },
{ "type": "Feature", "properties": { "geo_id": "TAN-000319", "deped_id": "EM.14582", "school_name": "NJORO", "address": null, "adm0": "TZA", "adm1": "Arusha", "adm2": "Karatu", "adm3": "Baray", "longitude": 35.107075, "latitude": -3.730468 }, "geometry": { "type": "Point", "coordinates": [ 35.107075, -3.730468 ] } },
{ "type": "Feature", "properties": { "geo_id": "TAN-000322", "deped_id": "EM.7612", "school_name": "QANGDEND", "address": null, "adm0": "TZA", "adm1": "Arusha", "adm2": "Karatu", "adm3": "Baray", "longitude": 35.36465565, "latitude": -3.529562093 }, "geometry": { "type": "Point", "coordinates": [ 35.36465565, -3.529562093 ] } },
{ "type": "Feature", "properties": { "geo_id": "TAN-000325", "deped_id": "EM.10029", "school_name": "AYALALIYO", "address": null, "adm0": "TZA", "adm1": "Arusha", "adm2": "Karatu", "adm3": "Buger", "longitude": 35.63024117, "latitude": -3.641636429 }, "geometry": { "type": "Point", "coordinates": [ 35.63024117, -3.641636429 ] } },
{ "type": "Feature", "properties": { "geo_id": "TAN-000328", "deped_id": "EM.994", "school_name": "BUGER", "address": null, "adm0": "TZA", "adm1": "Arusha", "adm2": "Karatu", "adm3": "Kansay", "longitude": 35.62435717, "latitude": -3.662764793 }, "geometry": { "type": "Point", "coordinates": [ 35.62435717, -3.662764793 ] } },
{ "type": "Feature", "properties": { "geo_id": "TAN-000331", "deped_id": "EM.12390", "school_name": "GAMDI", "address": null, "adm0": "TZA", "adm1": "Arusha", "adm2": "Karatu", "adm3": "Kansay", "longitude": 35.61853, "latitude": -3.68178745 }, "geometry": { "type": "Point", "coordinates": [ 35.61853, -3.68178745 ] } },
{ "type": "Feature", "properties": { "geo_id": "TAN-000334", "deped_id": "EM.5793", "school_name": "CHANGARAWE", "address": null, "adm0": "TZA", "adm1": "Arusha", "adm2": "Karatu", "adm3": "Daa", "longitude": 35.54844078, "latitude": -3.408751401 }, "geometry": { "type": "Point", "coordinates": [ 35.54844078, -3.408751401 ] } },
{ "type": "Feature", "properties": { "geo_id": "TAN-000337", "deped_id": "EM.3024", "school_name": "ENDASHANGWET", "address": null, "adm0": "TZA", "adm1": "Arusha", "adm2": "Karatu", "adm3": "Daa", "longitude": 35.487681, "latitude": -3.411477 }, "geometry": { "type": "Point", "coordinates": [ 35.487681, -3.411477 ] } },
{ "type": "Feature", "properties": { "geo_id": "TAN-000340", "deped_id": "EM.9232", "school_name": "MAKHOROMBA", "address": null, "adm0": "TZA", "adm1": "Arusha", "adm2": "Karatu", "adm3": "Mang'ola", "longitude": 35.40600078, "latitude": -3.406337128 }, "geometry": { "type": "Point", "coordinates": [ 35.40600078, -3.406337128 ] } },
{ "type": "Feature", "properties": { "geo_id": "TAN-000343", "deped_id": "EM.8823", "school_name": "MIDABINI", "address": null, "adm0": "TZA", "adm1": "Arusha", "adm2": "Karatu", "adm3": "Daa", "longitude": 35.487681, "latitude": -3.411477 }, "geometry": { "type": "Point", "coordinates": [ 35.487681, -3.411477 ] } },
{ "type": "Feature", "properties": { "geo_id": "TAN-000346", "deped_id": "EM.658", "school_name": "ENDABASH", "address": null, "adm0": "TZA", "adm1": "Arusha", "adm2": "Karatu", "adm3": "Kansay", "longitude": 35.58795929, "latitude": -3.608329995 }, "geometry": { "type": "Point", "coordinates": [ 35.58795929, -3.608329995 ] } },
{ "type": "Feature", "properties": { "geo_id": "TAN-000349", "deped_id": "EM.8055", "school_name": "QARU", "address": null, "adm0": "TZA", "adm1": "Arusha", "adm2": "Karatu", "adm3": "Endabash", "longitude": 35.59348101, "latitude": -3.544202046 }, "geometry": { "type": "Point", "coordinates": [ 35.59348101, -3.544202046 ] } },
{ "type": "Feature", "properties": { "geo_id": "TAN-000352", "deped_id": "EM.10415", "school_name": "QARU SARAMAY", "address": null, "adm0": "TZA", "adm1": "Arusha", "adm2": "Karatu", "adm3": "Endabash", "longitude": 35.556763, "latitude": -3.537054 }, "geometry": { "type": "Point", "coordinates": [ 35.556763, -3.537054 ] } },
{ "type": "Feature", "properties": { "geo_id": "TAN-000355", "deped_id": "EM.13040", "school_name": "DUUMA", "address": null, "adm0": "TZA", "adm1": "Arusha", "adm2": "Karatu", "adm3": "Endabash", "longitude": 35.62934272, "latitude": -3.548184917 }, "geometry": { "type": "Point", "coordinates": [ 35.62934272, -3.548184917 ] } },
{ "type": "Feature", "properties": { "geo_id": "TAN-000358", "deped_id": "EM.1771", "school_name": "ENDALLAH", "address": null, "adm0": "TZA", "adm1": "Arusha", "adm2": "Karatu", "adm3": "Endamarariek", "longitude": 35.70861347, "latitude": -3.483080096 }, "geometry": { "type": "Point", "coordinates": [ 35.70861347, -3.483080096 ] } },
{ "type": "Feature", "properties": { "geo_id": "TAN-000361", "deped_id": "EM.1175", "school_name": "ENDAMARARIEK", "address": null, "adm0": "TZA", "adm1": "Arusha", "adm2": "Karatu", "adm3": "Endabash", "longitude": 35.64054969, "latitude": -3.526210476 }, "geometry": { "type": "Point", "coordinates": [ 35.64054969, -3.526210476 ] } },
{ "type": "Feature", "properties": { "geo_id": "TAN-000364", "deped_id": "EM.6953", "school_name": "GETAMOCK", "address": null, "adm0": "TZA", "adm1": "Arusha", "adm2": "Karatu", "adm3": "Endamarariek", "longitude": 35.710943, "latitude": -3.483845 }, "geometry": { "type": "Point", "coordinates": [ 35.710943, -3.483845 ] } },
{ "type": "Feature", "properties": { "geo_id": "TAN-000367", "deped_id": "EM.10717", "school_name": "GIDBASSO", "address": null, "adm0": "TZA", "adm1": "Arusha", "adm2": "Karatu", "adm3": "Endamarariek", "longitude": 35.67090248, "latitude": -3.510281392 }, "geometry": { "type": "Point", "coordinates": [ 35.67090248, -3.510281392 ] } },
{ "type": "Feature", "properties": { "geo_id": "TAN-000370", "deped_id": "EM.13892", "school_name": "MCHANGANI", "address": null, "adm0": "TZA", "adm1": "Arusha", "adm2": "Karatu", "adm3": "Endamarariek", "longitude": 35.710943, "latitude": -3.483845 }, "geometry": { "type": "Point", "coordinates": [ 35.710943, -3.483845 ] } },
{ "type": "Feature", "properties": { "geo_id": "TAN-000372", "deped_id": "EM.10554", "school_name": "SHANGIT", "address": null, "adm0": "TZA", "adm1": "Arusha", "adm2": "Karatu", "adm3": "Endamarariek", "longitude": 35.66512351, "latitude": -3.483051469 }, "geometry": { "type": "Point", "coordinates": [ 35.66512351, -3.483051469 ] } },
{ "type": "Feature", "properties": { "geo_id": "TAN-000375", "deped_id": "EM.4588", "school_name": "AYALABE", "address": null, "adm0": "TZA", "adm1": "Arusha", "adm2": "Karatu", "adm3": "Qurus", "longitude": 35.66169826, "latitude": -3.343502286 }, "geometry": { "type": "Point", "coordinates": [ 35.66169826, -3.343502286 ] } },
{ "type": "Feature", "properties": { "geo_id": "TAN-000378", "deped_id": "EM.14579", "school_name": "HAYMU", "address": null, "adm0": "TZA", "adm1": "Arusha", "adm2": "Karatu", "adm3": "Qurus", "longitude": 35.66472447, "latitude": -3.358576802 }, "geometry": { "type": "Point", "coordinates": [ 35.66472447, -3.358576802 ] } },
{ "type": "Feature", "properties": { "geo_id": "TAN-000381", "deped_id": "EM.3025", "school_name": "SUMAWE", "address": null, "adm0": "TZA", "adm1": "Arusha", "adm2": "Karatu", "adm3": "Qurus", "longitude": 35.63711671, "latitude": -3.357775683 }, "geometry": { "type": "Point", "coordinates": [ 35.63711671, -3.357775683 ] } },
{ "type": "Feature", "properties": { "geo_id": "TAN-000384", "deped_id": "EM.7614", "school_name": "TLOMA", "address": null, "adm0": "TZA", "adm1": "Arusha", "adm2": "Karatu", "adm3": "Qurus", "longitude": 35.64251142, "latitude": -3.337508659 }, "geometry": { "type": "Point", "coordinates": [ 35.64251142, -3.337508659 ] } },
{ "type": "Feature", "properties": { "geo_id": "TAN-000387", "deped_id": "EM.8428", "school_name": "BARAKTA", "address": null, "adm0": "TZA", "adm1": "Arusha", "adm2": "Karatu", "adm3": "Kansay", "longitude": 35.536022, "latitude": -3.637635 }, "geometry": { "type": "Point", "coordinates": [ 35.536022, -3.637635 ] } },
{ "type": "Feature", "properties": { "geo_id": "TAN-000390", "deped_id": "EM.12389", "school_name": "ENDAGESH", "address": null, "adm0": "TZA", "adm1": "Arusha", "adm2": "Karatu", "adm3": "Kansay", "longitude": 35.55685034, "latitude": -3.673472528 }, "geometry": { "type": "Point", "coordinates": [ 35.55685034, -3.673472528 ] } },
{ "type": "Feature", "properties": { "geo_id": "TAN-000393", "deped_id": "EM.13890", "school_name": "GEER", "address": null, "adm0": "TZA", "adm1": "Arusha", "adm2": "Karatu", "adm3": "Kansay", "longitude": 35.57500916, "latitude": -3.656618982 }, "geometry": { "type": "Point", "coordinates": [ 35.57500916, -3.656618982 ] } },
{ "type": "Feature", "properties": { "geo_id": "TAN-000395", "deped_id": "EM.12391", "school_name": "HARAA", "address": null, "adm0": "TZA", "adm1": "Arusha", "adm2": "Karatu", "adm3": "Kansay", "longitude": 35.58251775, "latitude": -3.680673321 }, "geometry": { "type": "Point", "coordinates": [ 35.58251775, -3.680673321 ] } },
{ "type": "Feature", "properties": { "geo_id": "TAN-000398", "deped_id": "EM.807", "school_name": "KANSAY", "address": null, "adm0": "TZA", "adm1": "Arusha", "adm2": "Mbulu", "adm3": "Kansay", "longitude": 35.56576962, "latitude": -3.693808656 }, "geometry": { "type": "Point", "coordinates": [ 35.56576962, -3.693808656 ] } },
{ "type": "Feature", "properties": { "geo_id": "TAN-000401", "deped_id": "EM.7611", "school_name": "LAJA", "address": null, "adm0": "TZA", "adm1": "Arusha", "adm2": "Karatu", "adm3": "Kansay", "longitude": 35.53217934, "latitude": -3.665544828 }, "geometry": { "type": "Point", "coordinates": [ 35.53217934, -3.665544828 ] } },
{ "type": "Feature", "properties": { "geo_id": "TAN-000404", "deped_id": "EM.8429", "school_name": "BWAWANI", "address": null, "adm0": "TZA", "adm1": "Arusha", "adm2": "Karatu", "adm3": "Qurus", "longitude": 35.64703736, "latitude": -3.368611308 }, "geometry": { "type": "Point", "coordinates": [ 35.64703736, -3.368611308 ] } },
{ "type": "Feature", "properties": { "geo_id": "TAN-000407", "deped_id": "EM.13516", "school_name": "ENDORO", "address": null, "adm0": "TZA", "adm1": "Arusha", "adm2": "Karatu", "adm3": "Qurus", "longitude": 35.65015428, "latitude": -3.364057092 }, "geometry": { "type": "Point", "coordinates": [ 35.65015428, -3.364057092 ] } },
{ "type": "Feature", "properties": { "geo_id": "TAN-000410", "deped_id": "EM.737", "school_name": "KARATU", "address": null, "adm0": "TZA", "adm1": "Arusha", "adm2": "Karatu", "adm3": "Qurus", "longitude": 35.66496467, "latitude": -3.370821302 }, "geometry": { "type": "Point", "coordinates": [ 35.66496467, -3.370821302 ] } },
{ "type": "Feature", "properties": { "geo_id": "TAN-000413", "deped_id": "EM.10268", "school_name": "DIRANGW", "address": null, "adm0": "TZA", "adm1": "Arusha", "adm2": "Karatu", "adm3": "Rhotia", "longitude": 35.814503, "latitude": -3.317627764 }, "geometry": { "type": "Point", "coordinates": [ 35.814503, -3.317627764 ] } },
{ "type": "Feature", "properties": { "geo_id": "TAN-000416", "deped_id": "EM.2533", "school_name": "KITETE KCU", "address": null, "adm0": "TZA", "adm1": "Arusha", "adm2": "Karatu", "adm3": "Mbulumbulu", "longitude": 35.8572964, "latitude": -3.270356689 }, "geometry": { "type": "Point", "coordinates": [ 35.8572964, -3.270356689 ] } },
{ "type": "Feature", "properties": { "geo_id": "TAN-000419", "deped_id": "EM.4590", "school_name": "LOSITETE", "address": null, "adm0": "TZA", "adm1": "Arusha", "adm2": "Karatu", "adm3": "Mbulumbulu", "longitude": 35.87136479, "latitude": -3.209778759 }, "geometry": { "type": "Point", "coordinates": [ 35.87136479, -3.209778759 ] } },
{ "type": "Feature", "properties": { "geo_id": "TAN-000422", "deped_id": "EM.14581", "school_name": "MARMO", "address": null, "adm0": "TZA", "adm1": "Arusha", "adm2": "Karatu", "adm3": "Mbulumbulu", "longitude": 35.880894, "latitude": -3.203909 }, "geometry": { "type": "Point", "coordinates": [ 35.880894, -3.203909 ] } },
{ "type": "Feature", "properties": { "geo_id": "TAN-000424", "deped_id": "EM.995", "school_name": "MBULUMBULU", "address": null, "adm0": "TZA", "adm1": "Arusha", "adm2": "Karatu", "adm3": "Rhotia", "longitude": 35.76670366, "latitude": -3.296374789 }, "geometry": { "type": "Point", "coordinates": [ 35.76670366, -3.296374789 ] } },
{ "type": "Feature", "properties": { "geo_id": "TAN-000427", "deped_id": "EM.17276", "school_name": "SABASABA", "address": null, "adm0": "TZA", "adm1": "Arusha", "adm2": "Karatu", "adm3": "Mbulumbulu", "longitude": 35.83766613, "latitude": -3.300113162 }, "geometry": { "type": "Point", "coordinates": [ 35.83766613, -3.300113162 ] } },
{ "type": "Feature", "properties": { "geo_id": "TAN-000430", "deped_id": "EM.7613", "school_name": "SLAHHAMO", "address": null, "adm0": "TZA", "adm1": "Arusha", "adm2": "Karatu", "adm3": "Mbulumbulu", "longitude": 35.81884695, "latitude": -3.270384894 }, "geometry": { "type": "Point", "coordinates": [ 35.81884695, -3.270384894 ] } },
{ "type": "Feature", "properties": { "geo_id": "TAN-000433", "deped_id": "EM.3412", "school_name": "GYETIGHI", "address": null, "adm0": "TZA", "adm1": "Arusha", "adm2": "Karatu", "adm3": "Baray", "longitude": 35.42941786, "latitude": -3.550867189 }, "geometry": { "type": "Point", "coordinates": [ 35.42941786, -3.550867189 ] } },
{ "type": "Feature", "properties": { "geo_id": "TAN-000436", "deped_id": "EM.10269", "school_name": "MEALI", "address": null, "adm0": "TZA", "adm1": "Arusha", "adm2": "Karatu", "adm3": "Daa", "longitude": 35.50436472, "latitude": -3.398591642 }, "geometry": { "type": "Point", "coordinates": [ 35.50436472, -3.398591642 ] } },
{ "type": "Feature", "properties": { "geo_id": "TAN-000439", "deped_id": "EM.996", "school_name": "OLDEANI", "address": null, "adm0": "TZA", "adm1": "Arusha", "adm2": "Karatu", "adm3": "Oldean", "longitude": 35.5291408, "latitude": -3.37763067 }, "geometry": { "type": "Point", "coordinates": [ 35.5291408, -3.37763067 ] } },
{ "type": "Feature", "properties": { "geo_id": "TAN-000442", "deped_id": "EM.4589", "school_name": "GONGALI", "address": null, "adm0": "TZA", "adm1": "Arusha", "adm2": "Karatu", "adm3": "Qurus", "longitude": 35.6263256, "latitude": -3.414125427 }, "geometry": { "type": "Point", "coordinates": [ 35.6263256, -3.414125427 ] } },
{ "type": "Feature", "properties": { "geo_id": "TAN-000445", "deped_id": "EM.11089", "school_name": "KINIHHE", "address": null, "adm0": "TZA", "adm1": "Arusha", "adm2": "Karatu", "adm3": "Qurus", "longitude": 35.63102579, "latitude": -3.383259251 }, "geometry": { "type": "Point", "coordinates": [ 35.63102579, -3.383259251 ] } },
{ "type": "Feature", "properties": { "geo_id": "TAN-000448", "deped_id": "EM.10414", "school_name": "MAGESHO", "address": null, "adm0": "TZA", "adm1": "Arusha", "adm2": "Karatu", "adm3": "Endamarariek", "longitude": 35.61651567, "latitude": -3.450771798 }, "geometry": { "type": "Point", "coordinates": [ 35.61651567, -3.450771798 ] } },
{ "type": "Feature", "properties": { "geo_id": "TAN-000451", "deped_id": "EM.9335", "school_name": "MENDAY", "address": null, "adm0": "TZA", "adm1": "Arusha", "adm2": "Karatu", "adm3": "Qurus", "longitude": 35.58873928, "latitude": -3.435583988 }, "geometry": { "type": "Point", "coordinates": [ 35.58873928, -3.435583988 ] } },
{ "type": "Feature", "properties": { "geo_id": "TAN-000454", "deped_id": "EM.10553", "school_name": "QURUS", "address": null, "adm0": "TZA", "adm1": "Arusha", "adm2": "Karatu", "adm3": "Qurus", "longitude": 35.58090243, "latitude": -3.457467373 }, "geometry": { "type": "Point", "coordinates": [ 35.58090243, -3.457467373 ] } },
{ "type": "Feature", "properties": { "geo_id": "TAN-000457", "deped_id": "EM.12387", "school_name": "AKKO", "address": null, "adm0": "TZA", "adm1": "Arusha", "adm2": "Karatu", "adm3": "Rhotia", "longitude": 35.771926, "latitude": -3.359176 }, "geometry": { "type": "Point", "coordinates": [ 35.771926, -3.359176 ] } },
{ "type": "Feature", "properties": { "geo_id": "TAN-000460", "deped_id": "EM.9334", "school_name": "CHEMCHEM", "address": null, "adm0": "TZA", "adm1": "Arusha", "adm2": "Karatu", "adm3": "Rhotia", "longitude": 35.73723197, "latitude": -3.415494373 }, "geometry": { "type": "Point", "coordinates": [ 35.73723197, -3.415494373 ] } },
{ "type": "Feature", "properties": { "geo_id": "TAN-000463", "deped_id": "EM.10718", "school_name": "GILALA", "address": null, "adm0": "TZA", "adm1": "Arusha", "adm2": "Karatu", "adm3": "Rhotia", "longitude": 35.771926, "latitude": -3.359176 }, "geometry": { "type": "Point", "coordinates": [ 35.771926, -3.359176 ] } },
{ "type": "Feature", "properties": { "geo_id": "TAN-000466", "deped_id": "EM.12392", "school_name": "HAREABI", "address": null, "adm0": "TZA", "adm1": "Arusha", "adm2": "Karatu", "adm3": "Karatu", "longitude": 35.71339343, "latitude": -3.363800564 }, "geometry": { "type": "Point", "coordinates": [ 35.71339343, -3.363800564 ] } },
{ "type": "Feature", "properties": { "geo_id": "TAN-000469", "deped_id": "EM.13891", "school_name": "JUHUDI", "address": null, "adm0": "TZA", "adm1": "Arusha", "adm2": "Karatu", "adm3": "Karatu", "longitude": 35.70215421, "latitude": -3.389866844 }, "geometry": { "type": "Point", "coordinates": [ 35.70215421, -3.389866844 ] } },
{ "type": "Feature", "properties": { "geo_id": "TAN-000472", "deped_id": "EM.9050", "school_name": "KIBAONI", "address": null, "adm0": "TZA", "adm1": "Arusha", "adm2": "Karatu", "adm3": "Rhotia", "longitude": 35.771926, "latitude": -3.359176 }, "geometry": { "type": "Point", "coordinates": [ 35.771926, -3.359176 ] } },
{ "type": "Feature", "properties": { "geo_id": "TAN-000475", "deped_id": "EM.2451", "school_name": "KILIMAMOJA", "address": null, "adm0": "TZA", "adm1": "Arusha", "adm2": "Karatu", "adm3": "Rhotia", "longitude": 35.77818749, "latitude": -3.377171067 }, "geometry": { "type": "Point", "coordinates": [ 35.77818749, -3.377171067 ] } },
{ "type": "Feature", "properties": { "geo_id": "TAN-000478", "deped_id": "EM.5795", "school_name": "KILIMATEMBO", "address": null, "adm0": "TZA", "adm1": "Arusha", "adm2": "Karatu", "adm3": "Rhotia", "longitude": 35.73184571, "latitude": -3.335274605 }, "geometry": { "type": "Point", "coordinates": [ 35.73184571, -3.335274605 ] } },
{ "type": "Feature", "properties": { "geo_id": "TAN-000481", "deped_id": "EM.10031", "school_name": "MARERA", "address": null, "adm0": "TZA", "adm1": "Arusha", "adm2": "Karatu", "adm3": "Karatu", "longitude": 35.68663128, "latitude": -3.329905645 }, "geometry": { "type": "Point", "coordinates": [ 35.68663128, -3.329905645 ] } },
{ "type": "Feature", "properties": { "geo_id": "TAN-000484", "deped_id": "EM.2345", "school_name": "RHOTIA", "address": null, "adm0": "TZA", "adm1": "Arusha", "adm2": "Karatu", "adm3": "Ganako", "longitude": 35.70431346, "latitude": -3.334998811 }, "geometry": { "type": "Point", "coordinates": [ 35.70431346, -3.334998811 ] } },
{ "type": "Feature", "properties": { "geo_id": "TAN-000487", "deped_id": "EM.12395", "school_name": "UMOJA", "address": null, "adm0": "TZA", "adm1": "Arusha", "adm2": "Karatu", "adm3": "Rhotia", "longitude": 35.71624952, "latitude": -3.316982769 }, "geometry": { "type": "Point", "coordinates": [ 35.71624952, -3.316982769 ] } },
{ "type": "Feature", "properties": { "geo_id": "TAN-000490", "deped_id": "EM.3413", "school_name": "ENGARENAIBOR", "address": null, "adm0": "TZA", "adm1": "Arusha", "adm2": "Longido", "adm3": "Engarenaibor", "longitude": 36.48426605, "latitude": -2.526135904 }, "geometry": { "type": "Point", "coordinates": [ 36.48426605, -2.526135904 ] } },
{ "type": "Feature", "properties": { "geo_id": "TAN-000493", "deped_id": "EM.11572", "school_name": "NGOSWAK", "address": null, "adm0": "TZA", "adm1": "Arusha", "adm2": "Longido", "adm3": "Engarenaibor", "longitude": 36.49458862, "latitude": -2.509000933 }, "geometry": { "type": "Point", "coordinates": [ 36.49458862, -2.509000933 ] } },
{ "type": "Feature", "properties": { "geo_id": "TAN-000496", "deped_id": "EM.11573", "school_name": "SINONIK", "address": null, "adm0": "TZA", "adm1": "Arusha", "adm2": "Longido", "adm3": "Engarenaibor", "longitude": 36.57935892, "latitude": -2.501333508 }, "geometry": { "type": "Point", "coordinates": [ 36.57935892, -2.501333508 ] } },
{ "type": "Feature", "properties": { "geo_id": "TAN-000499", "deped_id": "EM.9336", "school_name": "KISERIAN", "address": null, "adm0": "TZA", "adm1": "Arusha", "adm2": "Longido", "adm3": "Engikaret", "longitude": 36.52831947, "latitude": -2.848169615 }, "geometry": { "type": "Point", "coordinates": [ 36.52831947, -2.848169615 ] } },
{ "type": "Feature", "properties": { "geo_id": "TAN-000501", "deped_id": "EM.6955", "school_name": "GELAI LUMBWA", "address": null, "adm0": "TZA", "adm1": "Arusha", "adm2": "Longido", "adm3": "Gelai lumbwa", "longitude": 36.18671137, "latitude": -2.617818488 }, "geometry": { "type": "Point", "coordinates": [ 36.18671137, -2.617818488 ] } },
{ "type": "Feature", "properties": { "geo_id": "TAN-000504", "deped_id": "EM.6954", "school_name": "GELAI BOMBA", "address": null, "adm0": "TZA", "adm1": "Arusha", "adm2": "Longido", "adm3": "Gelai Meirugoi", "longitude": 36.042722, "latitude": -2.718178 }, "geometry": { "type": "Point", "coordinates": [ 36.042722, -2.718178 ] } },
{ "type": "Feature", "properties": { "geo_id": "TAN-000507", "deped_id": "EM.13896", "school_name": "MAGADINI", "address": null, "adm0": "TZA", "adm1": "Arusha", "adm2": "Longido", "adm3": "Gelai Meirugoi", "longitude": 36.00593273, "latitude": -2.629847613 }, "geometry": { "type": "Point", "coordinates": [ 36.00593273, -2.629847613 ] } },
{ "type": "Feature", "properties": { "geo_id": "TAN-000510", "deped_id": "EM.10723", "school_name": "IRKASWA", "address": null, "adm0": "TZA", "adm1": "Arusha", "adm2": "Longido", "adm3": "Kamwanga", "longitude": 37.32780532, "latitude": -2.863495201 }, "geometry": { "type": "Point", "coordinates": [ 37.32780532, -2.863495201 ] } },
{ "type": "Feature", "properties": { "geo_id": "TAN-000513", "deped_id": "EM.4037", "school_name": "KAMWANGA", "address": null, "adm0": "TZA", "adm1": "Arusha", "adm2": "Rombo", "adm3": "Motamburu Kitendeni", "longitude": 37.36232406, "latitude": -2.88300662 }, "geometry": { "type": "Point", "coordinates": [ 37.36232406, -2.88300662 ] } },
{ "type": "Feature", "properties": { "geo_id": "TAN-000516", "deped_id": "EM.6956", "school_name": "KITENDENI", "address": null, "adm0": "TZA", "adm1": "Arusha", "adm2": "Longido", "adm3": "Kamwanga", "longitude": 37.23735263, "latitude": -2.840806344 }, "geometry": { "type": "Point", "coordinates": [ 37.23735263, -2.840806344 ] } },
{ "type": "Feature", "properties": { "geo_id": "TAN-000519", "deped_id": "EM.3026", "school_name": "KETUMBEINE", "address": null, "adm0": "TZA", "adm1": "Arusha", "adm2": "Longido", "adm3": "Kitumbeine", "longitude": 36.30764382, "latitude": -2.830791612 }, "geometry": { "type": "Point", "coordinates": [ 36.30764382, -2.830791612 ] } },
{ "type": "Feature", "properties": { "geo_id": "TAN-000522", "deped_id": "EM.13894", "school_name": "ABERNATHY", "address": null, "adm0": "TZA", "adm1": "Arusha", "adm2": "Longido", "adm3": "Longido", "longitude": 36.712864, "latitude": -2.721493 }, "geometry": { "type": "Point", "coordinates": [ 36.712864, -2.721493 ] } },
{ "type": "Feature", "properties": { "geo_id": "TAN-000525", "deped_id": "EM.474", "school_name": "LONGIDO", "address": null, "adm0": "TZA", "adm1": "Arusha", "adm2": "Longido", "adm3": "Orbomba", "longitude": 36.70010566, "latitude": -2.724699757 }, "geometry": { "type": "Point", "coordinates": [ 36.70010566, -2.724699757 ] } },
{ "type": "Feature", "properties": { "geo_id": "TAN-000528", "deped_id": "EM.13895", "school_name": "KITARINI", "address": null, "adm0": "TZA", "adm1": "Arusha", "adm2": "Longido", "adm3": "Mundarara", "longitude": 36.46436754, "latitude": -2.622670757 }, "geometry": { "type": "Point", "coordinates": [ 36.46436754, -2.622670757 ] } },
{ "type": "Feature", "properties": { "geo_id": "TAN-000531", "deped_id": "EM.8056", "school_name": "MUNDARARA", "address": null, "adm0": "TZA", "adm1": "Arusha", "adm2": "Longido", "adm3": "Mundarara", "longitude": 36.433765, "latitude": -2.631918 }, "geometry": { "type": "Point", "coordinates": [ 36.433765, -2.631918 ] } },
{ "type": "Feature", "properties": { "geo_id": "TAN-000534", "deped_id": "EM.3745", "school_name": "NAMANGA", "address": null, "adm0": "TZA", "adm1": "Arusha", "adm2": "Longido", "adm3": "Namanga", "longitude": 36.78742411, "latitude": -2.551750163 }, "geometry": { "type": "Point", "coordinates": [ 36.78742411, -2.551750163 ] } },
{ "type": "Feature", "properties": { "geo_id": "TAN-000537", "deped_id": "EM.9133", "school_name": "ELERAI", "address": null, "adm0": "TZA", "adm1": "Arusha", "adm2": "Siha", "adm3": "Olmolog", "longitude": 37.06698373, "latitude": -2.923582807 }, "geometry": { "type": "Point", "coordinates": [ 37.06698373, -2.923582807 ] } },
{ "type": "Feature", "properties": { "geo_id": "TAN-000540", "deped_id": "EM.6957", "school_name": "LERANG'WA", "address": null, "adm0": "TZA", "adm1": "Arusha", "adm2": "Longido", "adm3": "Olmolog", "longitude": 37.11855939, "latitude": -2.842291003 }, "geometry": { "type": "Point", "coordinates": [ 37.11855939, -2.842291003 ] } },
{ "type": "Feature", "properties": { "geo_id": "TAN-000542", "deped_id": "EM.3253", "school_name": "OLMOLOG", "address": null, "adm0": "TZA", "adm1": "Arusha", "adm2": "Siha", "adm3": "Ndumeti", "longitude": 37.12482327, "latitude": -2.867067923 }, "geometry": { "type": "Point", "coordinates": [ 37.12482327, -2.867067923 ] } },
{ "type": "Feature", "properties": { "geo_id": "TAN-000545", "deped_id": "EM.15205", "school_name": "ORBOMBA", "address": null, "adm0": "TZA", "adm1": "Arusha", "adm2": "Longido", "adm3": "Orbomba", "longitude": 36.681306, "latitude": -2.730557 }, "geometry": { "type": "Point", "coordinates": [ 36.681306, -2.730557 ] } },
{ "type": "Feature", "properties": { "geo_id": "TAN-000547", "deped_id": "EM.6958", "school_name": "NGEREYANI", "address": null, "adm0": "TZA", "adm1": "Arusha", "adm2": "Longido", "adm3": "Tingatinga", "longitude": 36.85523112, "latitude": -2.981002989 }, "geometry": { "type": "Point", "coordinates": [ 36.85523112, -2.981002989 ] } },
{ "type": "Feature", "properties": { "geo_id": "TAN-000550", "deped_id": "EM.3254", "school_name": "TINGATINGA", "address": null, "adm0": "TZA", "adm1": "Arusha", "adm2": "Siha", "adm3": "Tingatinga", "longitude": 36.95636021, "latitude": -2.978411459 }, "geometry": { "type": "Point", "coordinates": [ 36.95636021, -2.978411459 ] } },
{ "type": "Feature", "properties": { "geo_id": "TAN-000553", "deped_id": "EM.12396", "school_name": "CHEMCHEM", "address": null, "adm0": "TZA", "adm1": "Arusha", "adm2": "Meru", "adm3": "Kikatiti", "longitude": 36.941109, "latitude": -3.390218 }, "geometry": { "type": "Point", "coordinates": [ 36.941109, -3.390218 ] } },
{ "type": "Feature", "properties": { "geo_id": "TAN-000556", "deped_id": "EM.2346", "school_name": "KIKATITI", "address": null, "adm0": "TZA", "adm1": "Arusha", "adm2": "Meru", "adm3": "Kikatiti", "longitude": 36.94602225, "latitude": -3.40671974 }, "geometry": { "type": "Point", "coordinates": [ 36.94602225, -3.40671974 ] } },
{ "type": "Feature", "properties": { "geo_id": "TAN-000559", "deped_id": "EM.4043", "school_name": "NGYEKU", "address": null, "adm0": "TZA", "adm1": "Arusha", "adm2": "Meru", "adm3": "Kikatiti", "longitude": 36.957439, "latitude": -3.370167 }, "geometry": { "type": "Point", "coordinates": [ 36.957439, -3.370167 ] } },
{ "type": "Feature", "properties": { "geo_id": "TAN-000562", "deped_id": "EM.6962", "school_name": "NKOAMANGASHA", "address": null, "adm0": "TZA", "adm1": "Arusha", "adm2": "Meru", "adm3": "Kikatiti", "longitude": 36.957439, "latitude": -3.370167 }, "geometry": { "type": "Point", "coordinates": [ 36.957439, -3.370167 ] } },
{ "type": "Feature", "properties": { "geo_id": "TAN-000565", "deped_id": "EM.1461", "school_name": "SAKILA", "address": null, "adm0": "TZA", "adm1": "Arusha", "adm2": "Meru", "adm3": "Kikatiti", "longitude": 36.957439, "latitude": -3.370167 }, "geometry": { "type": "Point", "coordinates": [ 36.957439, -3.370167 ] } },
{ "type": "Feature", "properties": { "geo_id": "TAN-000568", "deped_id": "EM.6963", "school_name": "SURUMALA", "address": null, "adm0": "TZA", "adm1": "Arusha", "adm2": "Meru", "adm3": "Kikatiti", "longitude": 36.93931674, "latitude": -3.369817491 }, "geometry": { "type": "Point", "coordinates": [ 36.93931674, -3.369817491 ] } },
{ "type": "Feature", "properties": { "geo_id": "TAN-000571", "deped_id": "EM.1459", "school_name": "KARANGAI", "address": null, "adm0": "TZA", "adm1": "Arusha", "adm2": "Meru", "adm3": "Kikwe", "longitude": 36.86652465, "latitude": -3.477362237 }, "geometry": { "type": "Point", "coordinates": [ 36.86652465, -3.477362237 ] } },
{ "type": "Feature", "properties": { "geo_id": "TAN-000574", "deped_id": "EM.4039", "school_name": "KIKWE", "address": null, "adm0": "TZA", "adm1": "Arusha", "adm2": "Meru", "adm3": "Kikwe", "longitude": 36.82920425, "latitude": -3.426451165 }, "geometry": { "type": "Point", "coordinates": [ 36.82920425, -3.426451165 ] } },
{ "type": "Feature", "properties": { "geo_id": "TAN-000577", "deped_id": "EM.8357", "school_name": "MAWENI", "address": null, "adm0": "TZA", "adm1": "Arusha", "adm2": "Meru", "adm3": "Kikwe", "longitude": 36.85407296, "latitude": -3.457372173 }, "geometry": { "type": "Point", "coordinates": [ 36.85407296, -3.457372173 ] } },
{ "type": "Feature", "properties": { "geo_id": "TAN-000580", "deped_id": "EM.9459", "school_name": "NAMBALA", "address": null, "adm0": "TZA", "adm1": "Arusha", "adm2": "Meru", "adm3": "Kikwe", "longitude": 36.86896, "latitude": -3.469767 }, "geometry": { "type": "Point", "coordinates": [ 36.86896, -3.469767 ] } },
{ "type": "Feature", "properties": { "geo_id": "TAN-000583", "deped_id": "EM.11580", "school_name": "NGANANA", "address": null, "adm0": "TZA", "adm1": "Arusha", "adm2": "Arusha", "adm3": "Mlangarini", "longitude": 36.7964692, "latitude": -3.409787176 }, "geometry": { "type": "Point", "coordinates": [ 36.7964692, -3.409787176 ] } },
{ "type": "Feature", "properties": { "geo_id": "TAN-000586", "deped_id": "EM.6960", "school_name": "KANDASHE", "address": null, "adm0": "TZA", "adm1": "Arusha", "adm2": "Meru", "adm3": "Leguruki", "longitude": 36.94035392, "latitude": -3.206255921 }, "geometry": { "type": "Point", "coordinates": [ 36.94035392, -3.206255921 ] } },
{ "type": "Feature", "properties": { "geo_id": "TAN-000589", "deped_id": "EM.5798", "school_name": "MIRIRINI", "address": null, "adm0": "TZA", "adm1": "Arusha", "adm2": "Meru", "adm3": "Leguruki", "longitude": 36.92366994, "latitude": -3.22773986 }, "geometry": { "type": "Point", "coordinates": [ 36.92366994, -3.22773986 ] } },
{ "type": "Feature", "properties": { "geo_id": "TAN-000592", "deped_id": "EM.3255", "school_name": "NKOASENGA", "address": null, "adm0": "TZA", "adm1": "Arusha", "adm2": "Meru", "adm3": "Leguruki", "longitude": 36.91221987, "latitude": -3.25381773 }, "geometry": { "type": "Point", "coordinates": [ 36.91221987, -3.25381773 ] } },
{ "type": "Feature", "properties": { "geo_id": "TAN-000595", "deped_id": "EM.11581", "school_name": "NOSEIYA", "address": null, "adm0": "TZA", "adm1": "Arusha", "adm2": "Meru", "adm3": "Leguruki", "longitude": 36.92574947, "latitude": -3.244614802 }, "geometry": { "type": "Point", "coordinates": [ 36.92574947, -3.244614802 ] } },
{ "type": "Feature", "properties": { "geo_id": "TAN-000598", "deped_id": "EM.10556", "school_name": "SINAI", "address": null, "adm0": "TZA", "adm1": "Arusha", "adm2": "Meru", "adm3": "Leguruki", "longitude": 36.90819942, "latitude": -3.19638097 }, "geometry": { "type": "Point", "coordinates": [ 36.90819942, -3.19638097 ] } },
{ "type": "Feature", "properties": { "geo_id": "TAN-000601", "deped_id": "EM.3027", "school_name": "MAJENGO", "address": null, "adm0": "TZA", "adm1": "Arusha", "adm2": "Monduli", "adm3": "Majengo", "longitude": 35.83639075, "latitude": -3.372447687 }, "geometry": { "type": "Point", "coordinates": [ 35.83639075, -3.372447687 ] } },
{ "type": "Feature", "properties": { "geo_id": "TAN-000626", "deped_id": "EM.4599", "school_name": "MAJENGO", "address": null, "adm0": "TZA", "adm1": "Arusha", "adm2": "Monduli", "adm3": "Majengo", "longitude": 35.83639075, "latitude": -3.372447687 }, "geometry": { "type": "Point", "coordinates": [ 35.83639075, -3.372447687 ] } },
{ "type": "Feature", "properties": { "geo_id": "TAN-000651", "deped_id": "EM.16772", "school_name": "MAJENGO", "address": null, "adm0": "TZA", "adm1": "Arusha", "adm2": "Monduli", "adm3": "Majengo", "longitude": 35.83639075, "latitude": -3.372447687 }, "geometry": { "type": "Point", "coordinates": [ 35.83639075, -3.372447687 ] } },
{ "type": "Feature", "properties": { "geo_id": "TAN-000676", "deped_id": "EM.240", "school_name": "MAJENGO", "address": null, "adm0": "TZA", "adm1": "Arusha", "adm2": "Monduli", "adm3": "Majengo", "longitude": 35.83639075, "latitude": -3.372447687 }, "geometry": { "type": "Point", "coordinates": [ 35.83639075, -3.372447687 ] } },
{ "type": "Feature", "properties": { "geo_id": "TAN-000701", "deped_id": "EM.4920", "school_name": "MAJENGO", "address": null, "adm0": "TZA", "adm1": "Arusha", "adm2": "Monduli", "adm3": "Majengo", "longitude": 35.83639075, "latitude": -3.372447687 }, "geometry": { "type": "Point", "coordinates": [ 35.83639075, -3.372447687 ] } },
{ "type": "Feature", "properties": { "geo_id": "TAN-000726", "deped_id": "EM.693", "school_name": "MAJENGO", "address": null, "adm0": "TZA", "adm1": "Arusha", "adm2": "Monduli", "adm3": "Majengo", "longitude": 35.83639075, "latitude": -3.372447687 }, "geometry": { "type": "Point", "coordinates": [ 35.83639075, -3.372447687 ] } },
{ "type": "Feature", "properties": { "geo_id": "TAN-000751", "deped_id": "EM.7261", "school_name": "MAJENGO", "address": null, "adm0": "TZA", "adm1": "Arusha", "adm2": "Monduli", "adm3": "Majengo", "longitude": 35.83639075, "latitude": -3.372447687 }, "geometry": { "type": "Point", "coordinates": [ 35.83639075, -3.372447687 ] } },
{ "type": "Feature", "properties": { "geo_id": "TAN-000776", "deped_id": "EM.15696", "school_name": "MAJENGO", "address": null, "adm0": "TZA", "adm1": "Arusha", "adm2": "Monduli", "adm3": "Majengo", "longitude": 35.83639075, "latitude": -3.372447687 }, "geometry": { "type": "Point", "coordinates": [ 35.83639075, -3.372447687 ] } },
{ "type": "Feature", "properties": { "geo_id": "TAN-000801", "deped_id": "EM.18369", "school_name": "MAJENGO", "address": null, "adm0": "TZA", "adm1": "Arusha", "adm2": "Monduli", "adm3": "Majengo", "longitude": 35.83639075, "latitude": -3.372447687 }, "geometry": { "type": "Point", "coordinates": [ 35.83639075, -3.372447687 ] } },
{ "type": "Feature", "properties": { "geo_id": "TAN-000826", "deped_id": "EM.10668", "school_name": "MAJENGO", "address": null, "adm0": "TZA", "adm1": "Arusha", "adm2": "Monduli", "adm3": "Majengo", "longitude": 35.83639075, "latitude": -3.372447687 }, "geometry": { "type": "Point", "coordinates": [ 35.83639075, -3.372447687 ] } },
{ "type": "Feature", "properties": { "geo_id": "TAN-000851", "deped_id": "EM.12874", "school_name": "MAJENGO", "address": null, "adm0": "TZA", "adm1": "Arusha", "adm2": "Monduli", "adm3": "Majengo", "longitude": 35.83639075, "latitude": -3.372447687 }, "geometry": { "type": "Point", "coordinates": [ 35.83639075, -3.372447687 ] } },
{ "type": "Feature", "properties": { "geo_id": "TAN-000876", "deped_id": "EM.7932", "school_name": "MAJENGO", "address": null, "adm0": "TZA", "adm1": "Arusha", "adm2": "Monduli", "adm3": "Majengo", "longitude": 35.83639075, "latitude": -3.372447687 }, "geometry": { "type": "Point", "coordinates": [ 35.83639075, -3.372447687 ] } },
{ "type": "Feature", "properties": { "geo_id": "TAN-000901", "deped_id": "EM.12888", "school_name": "MAJENGO", "address": null, "adm0": "TZA", "adm1": "Arusha", "adm2": "Monduli", "adm3": "Majengo", "longitude": 35.83639075, "latitude": -3.372447687 }, "geometry": { "type": "Point", "coordinates": [ 35.83639075, -3.372447687 ] } },
{ "type": "Feature", "properties": { "geo_id": "TAN-000926", "deped_id": "EM.11516", "school_name": "MAJENGO", "address": null, "adm0": "TZA", "adm1": "Arusha", "adm2": "Monduli", "adm3": "Majengo", "longitude": 35.83639075, "latitude": -3.372447687 }, "geometry": { "type": "Point", "coordinates": [ 35.83639075, -3.372447687 ] } },
{ "type": "Feature", "properties": { "geo_id": "TAN-000951", "deped_id": "EM.15186", "school_name": "MAJENGO", "address": null, "adm0": "TZA", "adm1": "Arusha", "adm2": "Monduli", "adm3": "Majengo", "longitude": 35.83639075, "latitude": -3.372447687 }, "geometry": { "type": "Point", "coordinates": [ 35.83639075, -3.372447687 ] } },
{ "type": "Feature", "properties": { "geo_id": "TAN-000976", "deped_id": "EM.4028", "school_name": "MAJENGO", "address": null, "adm0": "TZA", "adm1": "Arusha", "adm2": "Monduli", "adm3": "Majengo", "longitude": 35.83639075, "latitude": -3.372447687 }, "geometry": { "type": "Point", "coordinates": [ 35.83639075, -3.372447687 ] } },
{ "type": "Feature", "properties": { "geo_id": "TAN-001001", "deped_id": "EM.9051", "school_name": "LOSITETI", "address": null, "adm0": "TZA", "adm1": "Arusha", "adm2": "Meru", "adm3": "Makiba", "longitude": 36.95333222, "latitude": -3.476271347 }, "geometry": { "type": "Point", "coordinates": [ 36.95333222, -3.476271347 ] } },
{ "type": "Feature", "properties": { "geo_id": "TAN-001004", "deped_id": "EM.11096", "school_name": "MAKIBA", "address": null, "adm0": "TZA", "adm1": "Arusha", "adm2": "Meru", "adm3": "Makiba", "longitude": 36.9936, "latitude": -3.492064 }, "geometry": { "type": "Point", "coordinates": [ 36.9936, -3.492064 ] } },
{ "type": "Feature", "properties": { "geo_id": "TAN-001007", "deped_id": "EM.3028", "school_name": "PATANUMBE", "address": null, "adm0": "TZA", "adm1": "Arusha", "adm2": "Meru", "adm3": "Makiba", "longitude": 36.94694192, "latitude": -3.518615302 }, "geometry": { "type": "Point", "coordinates": [ 36.94694192, -3.518615302 ] } },
{ "type": "Feature", "properties": { "geo_id": "TAN-001010", "deped_id": "EM.5802", "school_name": "VALESKA", "address": null, "adm0": "TZA", "adm1": "Arusha", "adm2": "Meru", "adm3": "Kikwe", "longitude": 36.91965504, "latitude": -3.51712614 }, "geometry": { "type": "Point", "coordinates": [ 36.91965504, -3.51712614 ] } },
{ "type": "Feature", "properties": { "geo_id": "TAN-001013", "deped_id": "EM.3746", "school_name": "DOLLY", "address": null, "adm0": "TZA", "adm1": "Arusha", "adm2": "Meru", "adm3": "Maroroni", "longitude": 36.87996991, "latitude": -3.431067627 }, "geometry": { "type": "Point", "coordinates": [ 36.87996991, -3.431067627 ] } },
{ "type": "Feature", "properties": { "geo_id": "TAN-001016", "deped_id": "EM.2756", "school_name": "MARORONI", "address": null, "adm0": "TZA", "adm1": "Arusha", "adm2": "Meru", "adm3": "Maroroni", "longitude": 36.91038932, "latitude": -3.438629785 }, "geometry": { "type": "Point", "coordinates": [ 36.91038932, -3.438629785 ] } },
{ "type": "Feature", "properties": { "geo_id": "TAN-001019", "deped_id": "EM.11097", "school_name": "MIGANDINI", "address": null, "adm0": "TZA", "adm1": "Arusha", "adm2": "Meru", "adm3": "Maroroni", "longitude": 36.88988131, "latitude": -3.444668988 }, "geometry": { "type": "Point", "coordinates": [ 36.88988131, -3.444668988 ] } },
{ "type": "Feature", "properties": { "geo_id": "TAN-001022", "deped_id": "EM.11579", "school_name": "NAZARETI", "address": null, "adm0": "TZA", "adm1": "Arusha", "adm2": "Meru", "adm3": "Maroroni", "longitude": 36.91376178, "latitude": -3.464006205 }, "geometry": { "type": "Point", "coordinates": [ 36.91376178, -3.464006205 ] } },
{ "type": "Feature", "properties": { "geo_id": "TAN-001025", "deped_id": "EM.5801", "school_name": "SAMARIA", "address": null, "adm0": "TZA", "adm1": "Arusha", "adm2": "Meru", "adm3": "Maroroni", "longitude": 36.9722075, "latitude": -3.43458654 }, "geometry": { "type": "Point", "coordinates": [ 36.9722075, -3.43458654 ] } },
{ "type": "Feature", "properties": { "geo_id": "TAN-001028", "deped_id": "EM.13044", "school_name": "SAVANA", "address": null, "adm0": "TZA", "adm1": "Arusha", "adm2": "Meru", "adm3": "Maroroni", "longitude": 36.932469, "latitude": -3.43805 }, "geometry": { "type": "Point", "coordinates": [ 36.932469, -3.43805 ] } },
{ "type": "Feature", "properties": { "geo_id": "TAN-001031", "deped_id": "EM.1460", "school_name": "MBUGUNI", "address": null, "adm0": "TZA", "adm1": "Arusha", "adm2": "Meru", "adm3": "Mbuguni", "longitude": 36.901687, "latitude": -3.558036 }, "geometry": { "type": "Point", "coordinates": [ 36.901687, -3.558036 ] } },
{ "type": "Feature", "properties": { "geo_id": "TAN-001034", "deped_id": "EM.11578", "school_name": "MIEMBENI", "address": null, "adm0": "TZA", "adm1": "Arusha", "adm2": "Meru", "adm3": "Mbuguni", "longitude": 36.93216789, "latitude": -3.559059456 }, "geometry": { "type": "Point", "coordinates": [ 36.93216789, -3.559059456 ] } },
{ "type": "Feature", "properties": { "geo_id": "TAN-001037", "deped_id": "EM.1566", "school_name": "MIKUNGANI", "address": null, "adm0": "TZA", "adm1": "Manyara", "adm2": "Meru", "adm3": "Mbuguni", "longitude": 36.95446513, "latitude": -3.567345901 }, "geometry": { "type": "Point", "coordinates": [ 36.95446513, -3.567345901 ] } },
{ "type": "Feature", "properties": { "geo_id": "TAN-001040", "deped_id": "EM.14583", "school_name": "TANZANITE", "address": null, "adm0": "TZA", "adm1": "Arusha", "adm2": "Meru", "adm3": "Mbuguni", "longitude": 36.901687, "latitude": -3.558036 }, "geometry": { "type": "Point", "coordinates": [ 36.901687, -3.558036 ] } },
{ "type": "Feature", "properties": { "geo_id": "TAN-001042", "deped_id": "EM.11093", "school_name": "ILKIRIMUNI", "address": null, "adm0": "TZA", "adm1": "Arusha", "adm2": "Meru", "adm3": "Ngarenanyuki", "longitude": 36.836178, "latitude": -3.175554 }, "geometry": { "type": "Point", "coordinates": [ 36.836178, -3.175554 ] } },
{ "type": "Feature", "properties": { "geo_id": "TAN-001044", "deped_id": "EM.11575", "school_name": "LENDOIYA", "address": null, "adm0": "TZA", "adm1": "Arusha", "adm2": "Meru", "adm3": "Ngarenanyuki", "longitude": 36.89122433, "latitude": -3.197494301 }, "geometry": { "type": "Point", "coordinates": [ 36.89122433, -3.197494301 ] } },
{ "type": "Feature", "properties": { "geo_id": "TAN-001047", "deped_id": "EM.9052", "school_name": "MWAKENY", "address": null, "adm0": "TZA", "adm1": "Arusha", "adm2": "Meru", "adm3": "Ngarenanyuki", "longitude": 36.8047417, "latitude": -3.194346996 }, "geometry": { "type": "Point", "coordinates": [ 36.8047417, -3.194346996 ] } },
{ "type": "Feature", "properties": { "geo_id": "TAN-001050", "deped_id": "EM.6961", "school_name": "NASULA", "address": null, "adm0": "TZA", "adm1": "Arusha", "adm2": "Monduli", "adm3": "Selela", "longitude": 36.03013266, "latitude": -3.363646689 }, "geometry": { "type": "Point", "coordinates": [ 36.03013266, -3.363646689 ] } },
{ "type": "Feature", "properties": { "geo_id": "TAN-001053", "deped_id": "EM.352", "school_name": "NKOANRUA", "address": null, "adm0": "TZA", "adm1": "Arusha", "adm2": "Meru", "adm3": "Nkoanrua", "longitude": 36.76727311, "latitude": -3.352793938 }, "geometry": { "type": "Point", "coordinates": [ 36.76727311, -3.352793938 ] } },
{ "type": "Feature", "properties": { "geo_id": "TAN-001056", "deped_id": "EM.1568", "school_name": "ULONG'A", "address": null, "adm0": "TZA", "adm1": "Arusha", "adm2": "Meru", "adm3": "Nkoanrua", "longitude": 36.75873289, "latitude": -3.338617574 }, "geometry": { "type": "Point", "coordinates": [ 36.75873289, -3.338617574 ] } },
{ "type": "Feature", "properties": { "geo_id": "TAN-001059", "deped_id": "EM.1178", "school_name": "NGYANI", "address": null, "adm0": "TZA", "adm1": "Arusha", "adm2": "Meru", "adm3": "Nkoaranga", "longitude": 36.82661077, "latitude": -3.338716353 }, "geometry": { "type": "Point", "coordinates": [ 36.82661077, -3.338716353 ] } },
{ "type": "Feature", "properties": { "geo_id": "TAN-001062", "deped_id": "EM.303", "school_name": "NKOARANGA", "address": null, "adm0": "TZA", "adm1": "Arusha", "adm2": "Meru", "adm3": "Nkoaranga", "longitude": 36.80796041, "latitude": -3.335971703 }, "geometry": { "type": "Point", "coordinates": [ 36.80796041, -3.335971703 ] } },
{ "type": "Feature", "properties": { "geo_id": "TAN-001065", "deped_id": "EM.8057", "school_name": "NSHUPU", "address": null, "adm0": "TZA", "adm1": "Arusha", "adm2": "Meru", "adm3": "Nkoaranga", "longitude": 36.83504586, "latitude": -3.352232575 }, "geometry": { "type": "Point", "coordinates": [ 36.83504586, -3.352232575 ] } },
{ "type": "Feature", "properties": { "geo_id": "TAN-001068", "deped_id": "EM.11095", "school_name": "KIMUNDO", "address": null, "adm0": "TZA", "adm1": "Arusha", "adm2": "Meru", "adm3": "Nkoarisambu", "longitude": 36.78319453, "latitude": -3.352884508 }, "geometry": { "type": "Point", "coordinates": [ 36.78319453, -3.352884508 ] } },
{ "type": "Feature", "properties": { "geo_id": "TAN-001071", "deped_id": "EM.7621", "school_name": "MFULONY", "address": null, "adm0": "TZA", "adm1": "Arusha", "adm2": "Meru", "adm3": "Nkoarisambu", "longitude": 36.778135, "latitude": -3.335674 }, "geometry": { "type": "Point", "coordinates": [ 36.778135, -3.335674 ] } },
{ "type": "Feature", "properties": { "geo_id": "TAN-001072", "deped_id": "EM.1567", "school_name": "NDOOMBO", "address": null, "adm0": "TZA", "adm1": "Arusha", "adm2": "Meru", "adm3": "Nkoarisambu", "longitude": 36.77528023, "latitude": -3.328213897 }, "geometry": { "type": "Point", "coordinates": [ 36.77528023, -3.328213897 ] } },
{ "type": "Feature", "properties": { "geo_id": "TAN-001075", "deped_id": "EM.1177", "school_name": "MAKUMIRA", "address": null, "adm0": "TZA", "adm1": "Arusha", "adm2": "Meru", "adm3": "Poli", "longitude": 36.82708724, "latitude": -3.359257422 }, "geometry": { "type": "Point", "coordinates": [ 36.82708724, -3.359257422 ] } },
{ "type": "Feature", "properties": { "geo_id": "TAN-001078", "deped_id": "EM.2106", "school_name": "NKOAKIRIKA", "address": null, "adm0": "TZA", "adm1": "Arusha", "adm2": "Meru", "adm3": "Poli", "longitude": 36.80039033, "latitude": -3.342282977 }, "geometry": { "type": "Point", "coordinates": [ 36.80039033, -3.342282977 ] } },
{ "type": "Feature", "properties": { "geo_id": "TAN-001081", "deped_id": "EM.3414", "school_name": "POLI", "address": null, "adm0": "TZA", "adm1": "Arusha", "adm2": "Meru", "adm3": "Poli", "longitude": 36.8049252, "latitude": -3.357887793 }, "geometry": { "type": "Point", "coordinates": [ 36.8049252, -3.357887793 ] } },
{ "type": "Feature", "properties": { "geo_id": "TAN-001083", "deped_id": "EM.4044", "school_name": "URAKI", "address": null, "adm0": "TZA", "adm1": "Arusha", "adm2": "Meru", "adm3": "Poli", "longitude": 36.81818, "latitude": -3.36297 }, "geometry": { "type": "Point", "coordinates": [ 36.81818, -3.36297 ] } },
{ "type": "Feature", "properties": { "geo_id": "TAN-001086", "deped_id": "EM.604", "school_name": "KILINGA", "address": null, "adm0": "TZA", "adm1": "Arusha", "adm2": "Meru", "adm3": "Songoro", "longitude": 36.83629001, "latitude": -3.318043958 }, "geometry": { "type": "Point", "coordinates": [ 36.83629001, -3.318043958 ] } },
{ "type": "Feature", "properties": { "geo_id": "TAN-001089", "deped_id": "EM.8203", "school_name": "MULALA", "address": null, "adm0": "TZA", "adm1": "Arusha", "adm2": "Meru", "adm3": "Songoro", "longitude": 36.826748, "latitude": -3.281709 }, "geometry": { "type": "Point", "coordinates": [ 36.826748, -3.281709 ] } },
{ "type": "Feature", "properties": { "geo_id": "TAN-001092", "deped_id": "EM.2213", "school_name": "SONGORO", "address": null, "adm0": "TZA", "adm1": "Arusha", "adm2": "Meru", "adm3": "Songoro", "longitude": 36.81612124, "latitude": -3.318686531 }, "geometry": { "type": "Point", "coordinates": [ 36.81612124, -3.318686531 ] } },
{ "type": "Feature", "properties": { "geo_id": "TAN-001095", "deped_id": "EM.808", "school_name": "SURA", "address": null, "adm0": "TZA", "adm1": "Arusha", "adm2": "Meru", "adm3": "Songoro", "longitude": 36.79871535, "latitude": -3.32692873 }, "geometry": { "type": "Point", "coordinates": [ 36.79871535, -3.32692873 ] } },
{ "type": "Feature", "properties": { "geo_id": "TAN-001098", "deped_id": "EM.3256", "school_name": "URISHO", "address": null, "adm0": "TZA", "adm1": "Arusha", "adm2": "Meru", "adm3": "Songoro", "longitude": 36.8115031, "latitude": -3.3244079 }, "geometry": { "type": "Point", "coordinates": [ 36.8115031, -3.3244079 ] } },
{ "type": "Feature", "properties": { "geo_id": "TAN-001101", "deped_id": "EM.15412", "school_name": "USHILI", "address": null, "adm0": "TZA", "adm1": "Arusha", "adm2": "Meru", "adm3": "Songoro", "longitude": 36.79667575, "latitude": -3.325893562 }, "geometry": { "type": "Point", "coordinates": [ 36.79667575, -3.325893562 ] } },
{ "type": "Feature", "properties": { "geo_id": "TAN-001104", "deped_id": "EM.7623", "school_name": "ENGARUKA CHINI", "address": null, "adm0": "TZA", "adm1": "Arusha", "adm2": "Monduli", "adm3": "Engaruka", "longitude": 36.00477852, "latitude": -3.000954706 }, "geometry": { "type": "Point", "coordinates": [ 36.00477852, -3.000954706 ] } },
{ "type": "Feature", "properties": { "geo_id": "TAN-001107", "deped_id": "EM.605", "school_name": "ENGARUKA JUU", "address": null, "adm0": "TZA", "adm1": "Arusha", "adm2": "Ngorongoro", "adm3": "Engaruka", "longitude": 35.93353774, "latitude": -3.020969144 }, "geometry": { "type": "Point", "coordinates": [ 35.93353774, -3.020969144 ] } },
{ "type": "Feature", "properties": { "geo_id": "TAN-001110", "deped_id": "EM.6969", "school_name": "MLIMANI", "address": null, "adm0": "TZA", "adm1": "Arusha", "adm2": "Monduli", "adm3": "Monduli juu", "longitude": 36.45883666, "latitude": -3.284849563 }, "geometry": { "type": "Point", "coordinates": [ 36.45883666, -3.284849563 ] } },
{ "type": "Feature", "properties": { "geo_id": "TAN-001113", "deped_id": "EM.10898", "school_name": "OLARASH", "address": null, "adm0": "TZA", "adm1": "Arusha", "adm2": "Monduli", "adm3": "Engutoto", "longitude": 36.47540505, "latitude": -3.31180759 }, "geometry": { "type": "Point", "coordinates": [ 36.47540505, -3.31180759 ] } },
{ "type": "Feature", "properties": { "geo_id": "TAN-001116", "deped_id": "EM.11101", "school_name": "BARAKA", "address": null, "adm0": "TZA", "adm1": "Arusha", "adm2": "Monduli", "adm3": "Mto wa Mbu", "longitude": 35.87638876, "latitude": -3.384210963 }, "geometry": { "type": "Point", "coordinates": [ 35.87638876, -3.384210963 ] } },
{ "type": "Feature", "properties": { "geo_id": "TAN-001119", "deped_id": "EM.7624", "school_name": "ESILALEI", "address": null, "adm0": "TZA", "adm1": "Arusha", "adm2": "Monduli", "adm3": "Esilalei", "longitude": 35.92413666, "latitude": -3.469845376 }, "geometry": { "type": "Point", "coordinates": [ 35.92413666, -3.469845376 ] } },
{ "type": "Feature", "properties": { "geo_id": "TAN-001122", "deped_id": "EM.12404", "school_name": "EUNOTO", "address": null, "adm0": "TZA", "adm1": "Arusha", "adm2": "Monduli", "adm3": "Majengo", "longitude": 35.86397725, "latitude": -3.339666868 }, "geometry": { "type": "Point", "coordinates": [ 35.86397725, -3.339666868 ] } },
{ "type": "Feature", "properties": { "geo_id": "TAN-001125", "deped_id": "EM.10271", "school_name": "OLTUKAI", "address": null, "adm0": "TZA", "adm1": "Manyara", "adm2": "Babati", "adm3": "Nkaiti", "longitude": 35.89160049, "latitude": -3.657264661 }, "geometry": { "type": "Point", "coordinates": [ 35.89160049, -3.657264661 ] } },
{ "type": "Feature", "properties": { "geo_id": "TAN-001128", "deped_id": "EM.6966", "school_name": "LEPURKO", "address": null, "adm0": "TZA", "adm1": "Arusha", "adm2": "Monduli", "adm3": "Lepurko", "longitude": 36.22645292, "latitude": -3.356095491 }, "geometry": { "type": "Point", "coordinates": [ 36.22645292, -3.356095491 ] } },
{ "type": "Feature", "properties": { "geo_id": "TAN-001131", "deped_id": "EM.5805", "school_name": "LOSIMINGORI", "address": null, "adm0": "TZA", "adm1": "Arusha", "adm2": "Monduli", "adm3": "Lepurko", "longitude": 36.211013, "latitude": -3.372637 }, "geometry": { "type": "Point", "coordinates": [ 36.211013, -3.372637 ] } },
{ "type": "Feature", "properties": { "geo_id": "TAN-001134", "deped_id": "EM.11106", "school_name": "NAFCO", "address": null, "adm0": "TZA", "adm1": "Arusha", "adm2": "Monduli", "adm3": "Lolkisale", "longitude": 36.40680217, "latitude": -3.721128433 }, "geometry": { "type": "Point", "coordinates": [ 36.40680217, -3.721128433 ] } },
{ "type": "Feature", "properties": { "geo_id": "TAN-001137", "deped_id": "EM.9137", "school_name": "NDUKUSI", "address": null, "adm0": "TZA", "adm1": "Arusha", "adm2": "Monduli", "adm3": "Lolkisale", "longitude": 36.296107, "latitude": -3.79908 }, "geometry": { "type": "Point", "coordinates": [ 36.296107, -3.79908 ] } },
{ "type": "Feature", "properties": { "geo_id": "TAN-001140", "deped_id": "EM.11104", "school_name": "MIGOMBANI", "address": null, "adm0": "TZA", "adm1": "Arusha", "adm2": "Monduli", "adm3": "Majengo", "longitude": 35.849592, "latitude": -3.344681 }, "geometry": { "type": "Point", "coordinates": [ 35.849592, -3.344681 ] } },
{ "type": "Feature", "properties": { "geo_id": "TAN-001143", "deped_id": "EM.3029", "school_name": "MAKUYUNI", "address": null, "adm0": "TZA", "adm1": "Arusha", "adm2": "Monduli", "adm3": "Makuyuni", "longitude": 36.10074426, "latitude": -3.556080462 }, "geometry": { "type": "Point", "coordinates": [ 36.10074426, -3.556080462 ] } },
{ "type": "Feature", "properties": { "geo_id": "TAN-001151", "deped_id": "EM.2249", "school_name": "MAKUYUNI", "address": null, "adm0": "TZA", "adm1": "Arusha", "adm2": "Monduli", "adm3": "Makuyuni", "longitude": 36.10074426, "latitude": -3.556080462 }, "geometry": { "type": "Point", "coordinates": [ 36.10074426, -3.556080462 ] } },
{ "type": "Feature", "properties": { "geo_id": "TAN-001159", "deped_id": "EM.17263", "school_name": "MAKUYUNI", "address": null, "adm0": "TZA", "adm1": "Arusha", "adm2": "Monduli", "adm3": "Makuyuni", "longitude": 36.10074426, "latitude": -3.556080462 }, "geometry": { "type": "Point", "coordinates": [ 36.10074426, -3.556080462 ] } },
{ "type": "Feature", "properties": { "geo_id": "TAN-001167", "deped_id": "EM.3416", "school_name": "MBUYUNI", "address": null, "adm0": "TZA", "adm1": "Arusha", "adm2": "Monduli", "adm3": "Makuyuni", "longitude": 36.20404542, "latitude": -3.47753247 }, "geometry": { "type": "Point", "coordinates": [ 36.20404542, -3.47753247 ] } },
{ "type": "Feature", "properties": { "geo_id": "TAN-001170", "deped_id": "EM.9136", "school_name": "NAITI", "address": null, "adm0": "TZA", "adm1": "Arusha", "adm2": "Monduli", "adm3": "Makuyuni", "longitude": 36.17580445, "latitude": -3.509236661 }, "geometry": { "type": "Point", "coordinates": [ 36.17580445, -3.509236661 ] } },
{ "type": "Feature", "properties": { "geo_id": "TAN-001173", "deped_id": "EM.6967", "school_name": "MESERANI CHINI", "address": null, "adm0": "TZA", "adm1": "Arusha", "adm2": "Monduli", "adm3": "Meserani", "longitude": 36.4561577, "latitude": -3.524487377 }, "geometry": { "type": "Point", "coordinates": [ 36.4561577, -3.524487377 ] } },
{ "type": "Feature", "properties": { "geo_id": "TAN-001176", "deped_id": "EM.6968", "school_name": "MESERANI JUU", "address": null, "adm0": "TZA", "adm1": "Arusha", "adm2": "Monduli", "adm3": "Meserani", "longitude": 36.48028579, "latitude": -3.438436932 }, "geometry": { "type": "Point", "coordinates": [ 36.48028579, -3.438436932 ] } },
{ "type": "Feature", "properties": { "geo_id": "TAN-001179", "deped_id": "EM.15216", "school_name": "SOKOINE", "address": null, "adm0": "TZA", "adm1": "Arusha", "adm2": "Monduli", "adm3": "Meserani", "longitude": 36.377197, "latitude": -3.582466 }, "geometry": { "type": "Point", "coordinates": [ 36.377197, -3.582466 ] } },
{ "type": "Feature", "properties": { "geo_id": "TAN-001181", "deped_id": "EM.10726", "school_name": "KILIMATINDE", "address": null, "adm0": "TZA", "adm1": "Arusha", "adm2": "Monduli", "adm3": "Moita", "longitude": 36.59318251, "latitude": -3.63819287 }, "geometry": { "type": "Point", "coordinates": [ 36.59318251, -3.63819287 ] } },
{ "type": "Feature", "properties": { "geo_id": "TAN-001184", "deped_id": "EM.6970", "school_name": "MOITA BWAWANI", "address": null, "adm0": "TZA", "adm1": "Arusha", "adm2": "Monduli", "adm3": "Moita", "longitude": 36.567997, "latitude": -3.553533 }, "geometry": { "type": "Point", "coordinates": [ 36.567997, -3.553533 ] } },
{ "type": "Feature", "properties": { "geo_id": "TAN-001187", "deped_id": "EM.6971", "school_name": "MOITA KILORITI", "address": null, "adm0": "TZA", "adm1": "Arusha", "adm2": "Monduli", "adm3": "Moita", "longitude": 36.567997, "latitude": -3.553533 }, "geometry": { "type": "Point", "coordinates": [ 36.567997, -3.553533 ] } },
{ "type": "Feature", "properties": { "geo_id": "TAN-001190", "deped_id": "EM.3257", "school_name": "MAZOEZI", "address": null, "adm0": "TZA", "adm1": "Arusha", "adm2": "Monduli", "adm3": "Engutoto", "longitude": 36.45269661, "latitude": -3.301807361 }, "geometry": { "type": "Point", "coordinates": [ 36.45269661, -3.301807361 ] } },
{ "type": "Feature", "properties": { "geo_id": "TAN-001193", "deped_id": "EM.13522", "school_name": "SINONI", "address": null, "adm0": "TZA", "adm1": "Arusha", "adm2": "Monduli", "adm3": "Monduli Mjini", "longitude": 36.44544, "latitude": -3.30125 }, "geometry": { "type": "Point", "coordinates": [ 36.44544, -3.30125 ] } },
{ "type": "Feature", "properties": { "geo_id": "TAN-001196", "deped_id": "EM.6972", "school_name": "MSWAKINI", "address": null, "adm0": "TZA", "adm1": "Arusha", "adm2": "Monduli", "adm3": "Mswakini", "longitude": 36.01504154, "latitude": -3.644111225 }, "geometry": { "type": "Point", "coordinates": [ 36.01504154, -3.644111225 ] } },
{ "type": "Feature", "properties": { "geo_id": "TAN-001199", "deped_id": "EM.11105", "school_name": "MSWAKINI JUU", "address": null, "adm0": "TZA", "adm1": "Manyara", "adm2": "Monduli", "adm3": "Mswakini", "longitude": 36.05629058, "latitude": -3.677433163 }, "geometry": { "type": "Point", "coordinates": [ 36.05629058, -3.677433163 ] } },
{ "type": "Feature", "properties": { "geo_id": "TAN-001202", "deped_id": "EM.8968", "school_name": "NAITOLIA", "address": null, "adm0": "TZA", "adm1": "Arusha", "adm2": "Monduli", "adm3": "Mswakini", "longitude": 36.08970581, "latitude": -3.60316467 }, "geometry": { "type": "Point", "coordinates": [ 36.08970581, -3.60316467 ] } },
{ "type": "Feature", "properties": { "geo_id": "TAN-001205", "deped_id": "EM.10897", "school_name": "MBAASH", "address": null, "adm0": "TZA", "adm1": "Arusha", "adm2": "Monduli", "adm3": "Selela", "longitude": 36.05865816, "latitude": -3.207816102 }, "geometry": { "type": "Point", "coordinates": [ 36.05865816, -3.207816102 ] } },
{ "type": "Feature", "properties": { "geo_id": "TAN-001208", "deped_id": "EM.4600", "school_name": "SELELA", "address": null, "adm0": "TZA", "adm1": "Arusha", "adm2": "Monduli", "adm3": "Selela", "longitude": 35.91610269, "latitude": -3.228814683 }, "geometry": { "type": "Point", "coordinates": [ 35.91610269, -3.228814683 ] } },
{ "type": "Feature", "properties": { "geo_id": "TAN-001211", "deped_id": "EM.10270", "school_name": "ARKARIA", "address": null, "adm0": "TZA", "adm1": "Arusha", "adm2": "Monduli", "adm3": "Sepeko", "longitude": 36.30287186, "latitude": -3.327400845 }, "geometry": { "type": "Point", "coordinates": [ 36.30287186, -3.327400845 ] } },
{ "type": "Feature", "properties": { "geo_id": "TAN-001214", "deped_id": "EM.6964", "school_name": "ARKATANI", "address": null, "adm0": "TZA", "adm1": "Arusha", "adm2": "Monduli", "adm3": "Sepeko", "longitude": 36.39245065, "latitude": -3.419004168 }, "geometry": { "type": "Point", "coordinates": [ 36.39245065, -3.419004168 ] } },
{ "type": "Feature", "properties": { "geo_id": "TAN-001217", "deped_id": "EM.5803", "school_name": "LENDIKINYA", "address": null, "adm0": "TZA", "adm1": "Arusha", "adm2": "Monduli", "adm3": "Sepeko", "longitude": 36.35467996, "latitude": -3.345724922 }, "geometry": { "type": "Point", "coordinates": [ 36.35467996, -3.345724922 ] } },
{ "type": "Feature", "properties": { "geo_id": "TAN-001220", "deped_id": "EM.6974", "school_name": "ALAILELAI", "address": null, "adm0": "TZA", "adm1": "Arusha", "adm2": "Ngorongoro", "adm3": "Alailelai", "longitude": 35.67114622, "latitude": -2.981824633 }, "geometry": { "type": "Point", "coordinates": [ 35.67114622, -2.981824633 ] } },
{ "type": "Feature", "properties": { "geo_id": "TAN-001223", "deped_id": "EM.10901", "school_name": "SENDUI", "address": null, "adm0": "TZA", "adm1": "Arusha", "adm2": "Ngorongoro", "adm3": "Alailelai", "longitude": 35.72198283, "latitude": -2.940519178 }, "geometry": { "type": "Point", "coordinates": [ 35.72198283, -2.940519178 ] } },
{ "type": "Feature", "properties": { "geo_id": "TAN-001226", "deped_id": "EM.659", "school_name": "ARASH", "address": null, "adm0": "TZA", "adm1": "Arusha", "adm2": "Ngorongoro", "adm3": "Arash", "longitude": 35.47753457, "latitude": -2.400719656 }, "geometry": { "type": "Point", "coordinates": [ 35.47753457, -2.400719656 ] } },
{ "type": "Feature", "properties": { "geo_id": "TAN-001229", "deped_id": "EM.13047", "school_name": "OLALAA", "address": null, "adm0": "TZA", "adm1": "Arusha", "adm2": "Ngorongoro", "adm3": "Arash", "longitude": 35.50586319, "latitude": -2.486052402 }, "geometry": { "type": "Point", "coordinates": [ 35.50586319, -2.486052402 ] } },
{ "type": "Feature", "properties": { "geo_id": "TAN-001232", "deped_id": "EM.11112", "school_name": "RERA", "address": null, "adm0": "TZA", "adm1": "Arusha", "adm2": "Ngorongoro", "adm3": "Samunge", "longitude": 35.70972946, "latitude": -2.183401872 }, "geometry": { "type": "Point", "coordinates": [ 35.70972946, -2.183401872 ] } },
{ "type": "Feature", "properties": { "geo_id": "TAN-001235", "deped_id": "EM.7626", "school_name": "ENGUSEROSAMBU", "address": null, "adm0": "TZA", "adm1": "Arusha", "adm2": "Ngorongoro", "adm3": "Orgosorok", "longitude": 35.63641914, "latitude": -2.006228392 }, "geometry": { "type": "Point", "coordinates": [ 35.63641914, -2.006228392 ] } },
{ "type": "Feature", "properties": { "geo_id": "TAN-001238", "deped_id": "EM.13046", "school_name": "NAAN", "address": null, "adm0": "TZA", "adm1": "Arusha", "adm2": "Ngorongoro", "adm3": "Orgosorok", "longitude": 35.74219671, "latitude": -2.042019493 }, "geometry": { "type": "Point", "coordinates": [ 35.74219671, -2.042019493 ] } },
{ "type": "Feature", "properties": { "geo_id": "TAN-001241", "deped_id": "EM.9583", "school_name": "NG'ARWA", "address": null, "adm0": "TZA", "adm1": "Arusha", "adm2": "Ngorongoro", "adm3": "Orgosorok", "longitude": 35.62813422, "latitude": -2.081713544 }, "geometry": { "type": "Point", "coordinates": [ 35.62813422, -2.081713544 ] } },
{ "type": "Feature", "properties": { "geo_id": "TAN-001244", "deped_id": "EM.3030", "school_name": "KAKESIO", "address": null, "adm0": "TZA", "adm1": "Arusha", "adm2": "Ngorongoro", "adm3": "Kakesio", "longitude": 34.95928114, "latitude": -3.40305572 }, "geometry": { "type": "Point", "coordinates": [ 34.95928114, -3.40305572 ] } },
{ "type": "Feature", "properties": { "geo_id": "TAN-001247", "deped_id": "EM.7631", "school_name": "OSINONI", "address": null, "adm0": "TZA", "adm1": "Arusha", "adm2": "Ngorongoro", "adm3": "Kakesio", "longitude": 35.06700861, "latitude": -3.387323101 }, "geometry": { "type": "Point", "coordinates": [ 35.06700861, -3.387323101 ] } },
{ "type": "Feature", "properties": { "geo_id": "TAN-001250", "deped_id": "EM.3418", "school_name": "MAALON", "address": null, "adm0": "TZA", "adm1": "Arusha", "adm2": "Ngorongoro", "adm3": "Maalon", "longitude": 35.54895214, "latitude": -2.271362255 }, "geometry": { "type": "Point", "coordinates": [ 35.54895214, -2.271362255 ] } },